구,법정동,아파트명,r_c,n,last_ym,r_dong,입지가치지수,avg_price_per_sqm,median_amount,lat,lon,subway_dist_km,nearest_station,commute_minutes,pred_idx,final_resid,deviation_pct,zone,extreme_deviation,blue_candidate_lowconf,confidence
강북구,미아동,에스케이북한산시티,-0.3876833941644912,217,202603,-0.33818170998307784,-0.3865684913676125,895.7274490047123,67500.0,37.6184432414034,127.013039501497,0.20694604792593552,솔샘 우이신설선,39,-0.10756361813180138,-0.27900487323581113,-27.9,Gray,False,False,높음
강동구,고덕동,고덕그라시움,0.388525369753567,180,202603,0.28424493496198805,0.38570697962406486,2750.868760568976,195000.0,37.55754060136432,127.16363056171647,0.22231925428758695,상일동,22,0.21097297944190768,0.17473400018215718,17.5,Gray,False,False,높음
강동구,암사동,선사현대아파트,0.3319169138346439,169,202603,0.19820987351617922,0.32807475750365356,1844.0379403332395,126800.0,37.55224672809914,127.1266717599396,0.24454415394642676,암사,16,0.32068260733238685,0.007392150171266709,0.7,Gray,False,False,높음
은평구,응암동,녹번역e편한세상캐슬,-0.13622568276018768,167,202603,-0.3107939037815979,-0.1413003403480194,1723.2516416366889,118500.0,37.59919280698651,126.93209475348951,0.37467186816629966,녹번,46,-0.26685655941158604,0.12555621906356665,12.6,Gray,False,False,높음
송파구,신천동,파크리오,0.8893601131516828,159,202603,0.6911988709460589,0.8833186118649261,3496.923639286613,280000.0,37.52122940631966,127.10998251166994,0.4578034520295568,몽촌토성,13,0.34286657778554047,0.5404520340793857,54.0,Red,False,False,높음
강동구,상일동,고덕아르테온,0.22516368376252496,158,202603,0.11957279321176165,0.22192469938980217,2421.7886792583977,188750.0,37.55500651472703,127.16845975290046,0.29193430324061853,상일동,24,0.1619546394192215,0.059970059970580664,6.0,Gray,False,False,높음
강동구,고덕동,래미안힐스테이트고덕,0.34725236486287975,158,202603,0.28424493496198805,0.3453196216143861,2403.837717563294,185000.0,37.5595258727289,127.149057394089,0.6713170544827556,고덕,22,0.13840624399591994,0.20691337761846618,20.7,Gray,False,False,높음
강동구,암사동,롯데캐슬퍼스트,0.2626169464542434,158,202603,0.19820987351617922,0.26064126937025367,1853.579170146672,168250.0,37.55662489972904,127.1430397571237,0.4867465876608344,암사사공원,16,0.28153800590207245,-0.020896736531818783,-2.1,Gray,False,False,높음
관악구,봉천동,벽산블루밍,-0.11039860238459044,154,202603,-0.11290084667273516,-0.11047728931189058,1203.2991097629808,90500.0,37.48994503623179,126.94451210283677,0.8675024690146143,봉천,36,-0.1576715207719812,0.047194231460090635,4.7,Gray,False,False,높음
노원구,중계동,중계그린1단지,-0.1615267898997513,152,202603,-0.2126795577727421,-0.16315585894029241,1102.2785860320148,51500.0,37.64146002636925,127.06453212641915,0.40557441640585523,중계,36,-0.08301500625416058,-0.08014085268613183,-8.0,Gray,False,False,높음
동대문구,답십리동,래미안위브,0.13129615874652756,152,202603,-0.06863442536384452,0.1249289426920571,1799.730661409395,143350.0,37.57159835155525,127.05337841766884,0.5191341936273112,답십리,24,0.12523473938433938,-0.0003057966922822841,-0.0,Gray,False,False,높음
송파구,가락동,헬리오시티,0.6385138065174688,149,202603,0.34098738251185506,0.6288538576861177,3416.520513691173,279000.0,37.4996100876749,127.111610941234,0.052698549734073785,송파,16,0.35168857039345774,0.27716528729265993,27.7,Gray,False,False,높음
성동구,하왕십리동,센트라스,0.4059277144975164,142,202603,0.21652617315376482,0.3994854852001099,2537.2330852086498,185000.0,37.56553911024445,127.02706905928386,0.22965701652130632,상왕십리,21,0.22867065534422049,0.17081482985588942,17.1,Gray,False,False,높음
서대문구,북가좌동,DMC래미안e편한세상,0.023807871599933708,142,202603,-0.12483944725254766,0.018751840346447946,1539.894618696781,130000.0,37.573666935484006,126.91067768766229,0.6577967146218257,가좌 경의중앙선,39,-0.18042981266893865,0.1991816530153866,19.9,Gray,False,False,높음
동대문구,전농동,래미안크레시티,0.1788473103759428,140,202603,-0.030261526060465786,0.17163666084365284,1879.65102143254,153000.0,37.576333475735964,127.05249313864849,0.7987190908284153,청량리,26,0.0422812076461726,0.12935545319748024,12.9,Gray,False,False,높음
관악구,봉천동,관악드림(동아),-0.06547967018338254,135,202603,-0.11290084667273516,-0.06717328362943084,1233.4757880520228,97000.0,37.4750064,126.9571404,0.6092350740684154,낙성대,36,-0.11593051064846016,0.04875722701902932,4.9,Gray,False,False,높음
노원구,중계동,중계무지개,-0.2132834849082389,133,202603,-0.2126795577727421,-0.2132616034902861,1035.4706049203319,51000.0,37.6427157598219,127.066582911007,0.3423677979229038,중계,36,-0.0727995932612816,-0.1404620102290045,-14.0,Gray,False,False,높음
노원구,상계동,상계주공6(고층),-0.17400467855561255,132,202603,-0.33837159335803557,-0.18000347106664988,1168.0122444338049,60600.0,37.66727,127.07242,0.6705814960057204,불암산,42,-0.23914688174013743,0.05914341067348755,5.9,Gray,False,False,높음
서대문구,남가좌동,DMC파크뷰자이1단지,0.05112699446247373,132,202603,-0.02479971900169507,0.04835594652582523,1711.7349901694395,141000.0,37.5719118733027,126.915680881773,0.36049102289423024,가좌 경의중앙선,46,-0.264564660326977,0.3129206068528022,31.3,Red,False,False,높음
노원구,상계동,상계주공7(고층),-0.13095267107805877,131,202603,-0.33837159335803557,-0.13857836675011673,1197.7415686868483,55800.0,37.66727,127.07242,0.6705814960057204,불암산,42,-0.23914688174013743,0.1005685149900207,10.1,Gray,False,False,높음
중구,신당동,남산타운,0.3054780318916131,125,202603,0.1805329860512685,0.300672453205446,1759.6373687227037,147500.0,37.5465805104561,127.00703402265,0.7975836043252401,금호,23,0.09911552517744404,0.20155692802800196,20.2,Gray,False,False,높음
강동구,길동,삼익파크맨션,-0.07544026800670858,124,202603,-0.15667686721835844,-0.07858897340250896,1427.4777264758393,105000.0,37.5447405093763,127.147620276993,0.4264242706841119,굽은다리,24,0.1402184574526968,-0.21880743085520576,-21.9,Gray,False,False,높음
강동구,상일동,고덕롯데캐슬베네루체,0.07936355032537226,124,202603,0.11957279321176165,0.08092204811166642,2003.6383110643478,155000.0,37.549312250137085,127.1678007705208,0.8358833035551246,상일동,24,0.07404195213038733,0.0068800959812790885,0.7,Gray,False,False,높음
구로구,개봉동,한마을,-0.21233108592194883,124,202603,-0.3518348128307494,-0.21773820711996436,1069.6292004529919,82250.0,37.495266073058716,126.86250078204634,0.34104877751786994,개봉,45,-0.24253881683311374,0.024800609713149374,2.5,Gray,False,False,높음
노원구,월계동,한진한화그랑빌,-0.14866152318627981,124,202603,-0.2535145399746606,-0.1527255936044341,1162.0399321270818,90000.0,37.61780416116174,127.06856779530985,0.3378289918134549,석계,30,0.04123556752757129,-0.1939611611320054,-19.4,Gray,False,False,높음
노원구,상계동,상계주공9(고층),-0.33518546319065606,124,202603,-0.33837159335803557,-0.33530895660799637,957.4562116311379,49500.0,37.66727,127.07242,0.6705814960057204,불암산,42,-0.23914688174013743,-0.09616207486785894,-9.6,Gray,False,False,높음
성북구,길음동,롯데캐슬클라시아,-0.08595135568166098,123,202603,-0.06091699328471714,-0.08497345090053036,1990.0145181599826,144000.0,37.60831836870625,127.02653980629981,0.5627795297656394,길음,40,-0.18395679672657916,0.0989833458260488,9.9,Gray,False,False,높음
도봉구,창동,창동주공3단지(해등마을),-0.19201863724563978,119,202603,-0.26856099041075626,-0.19510502245391062,1087.4632393408133,59900.0,37.6534371,127.0488204,0.038741578802191284,창동,34,0.014039481450043856,-0.20914450390395448,-20.9,Gray,False,False,높음
관악구,봉천동,관악푸르지오,0.04068062484752141,118,202603,-0.11290084667273516,0.0344374755987305,1424.8113126393444,91000.0,37.48730982964421,126.96086404320091,0.9295185634776006,남성,36,-0.1676945220390983,0.2021319976378288,20.2,Gray,False,False,높음
강서구,화곡동,강서힐스테이트,-0.034189118426689216,118,202603,-0.19304958963224267,-0.04064686115862229,1569.6366006795206,140500.0,37.54675178573402,126.84011485946367,0.4052799740639909,우장산,45,-0.2529198214730375,0.2122729603144152,21.2,Gray,False,False,높음
성북구,하월곡동,월곡두산위브,-0.18550899398582052,117,202603,-0.2372317772574219,-0.1876287801854763,1092.2389796580148,81200.0,37.6073772806315,127.038075319501,0.6877047513892907,월곡,36,-0.12861272938583657,-0.05901605079963973,-5.9,Gray,False,False,높음
영등포구,영등포동,영등포푸르지오,0.29953610409414466,116,202603,0.2341326814461111,0.2968334833235648,1709.7841647738162,125500.0,37.51185180912726,126.90237014189154,0.6239003843302109,영등포,31,-0.023882707096948175,0.32071619042051297,32.1,Red,False,False,높음
성북구,길음동,래미안길음센터피스,-0.008360055051111405,115,202602,-0.06091699328471714,-0.010549927477511645,1964.0290356933242,124000.0,37.61162932175465,127.02733945483715,0.3036086307492556,미아사거리,40,-0.1420697628568237,0.13151983537931206,13.2,Gray,False,False,높음
성북구,장위동,래미안장위퍼스트하이,-0.29369332448697294,113,202603,-0.2882447822080515,-0.2934624540514254,1433.816852599401,111000.0,37.61984283215827,127.05135702409821,1.0130709961986308,광운대,37,-0.200081812743641,-0.0933806413077844,-9.3,Gray,False,False,높음
강동구,명일동,삼익그린2차,0.4196696065892187,112,202603,0.19900656495347335,0.4102395620748706,2307.420264073186,155250.0,37.55269966641881,127.14854472216015,0.42236373937082944,명일,23,0.159758318220952,0.2504812438539186,25.0,Gray,False,False,높음
강서구,화곡동,"우장산아이파크,이편한세상",0.199748080454282,110,202603,-0.19304958963224267,0.18266992088530265,1675.552514689884,134950.0,37.54942822036064,126.83781756883711,0.14804082199815685,우장산,45,-0.21134499530195716,0.3940149161872598,39.4,Red,False,False,높음
중구,황학동,롯데캐슬,-0.0500590540335317,109,202603,-0.10106863163420271,-0.05229631620899972,1398.7838129154268,106000.0,37.57114893748801,127.02158895337773,0.5146742155465553,동묘앞,22,0.16372275879321008,-0.2160190750022098,-21.6,Gray,False,False,높음
노원구,상계동,상계주공3(고층),-0.11433748730054186,109,202603,-0.33837159335803557,-0.12416354458376526,1226.447373976938,71000.0,37.66727,127.07242,0.6705814960057204,불암산,42,-0.23914688174013743,0.11498333715637217,11.5,Gray,False,False,높음
관악구,봉천동,두산,0.02175176192795834,109,202603,-0.11290084667273516,0.015845945761261256,1346.0489761915717,105000.0,37.4845274045932,126.94289247795973,0.25205543750309317,봉천,36,-0.05820336770463441,0.07404931346589566,7.4,Gray,False,False,높음
관악구,봉천동,현대(관악),-0.11755124419886281,108,202603,-0.11290084667273516,-0.11734547439682178,1145.2863540304406,86000.0,37.4825968712886,126.945494404874,0.33628200910164574,봉천,36,-0.07181601198943477,-0.045529462407387006,-4.6,Gray,False,False,높음
성북구,길음동,길음뉴타운4단지(e편한세상),-0.008391988661532405,107,202603,-0.06091699328471714,-0.010736854939353153,1313.358432225459,96300.0,37.6126941142614,127.019072993331,0.9541665576747499,북한산보국문 우이신설선,40,-0.24721251623996277,0.23647566130060962,23.6,Gray,False,False,높음
강서구,가양동,강변,0.31256283747314834,105,202603,0.15695161529600643,0.3054896001014601,1649.8678421849154,62500.0,37.56521522448027,126.85566705807918,0.4346465842280811,가양,35,-0.06883003099254448,0.37431963109400457,37.4,Red,False,False,높음
노원구,공릉동,태강아파트(아이파크),-0.17031141781555142,105,202603,-0.29973352934934877,-0.17619424106708767,1061.457911950115,53700.0,37.6233616314967,127.084916391452,0.40961373054380407,화랑대,28,0.06740096488443914,-0.2435952059515268,-24.4,Gray,False,False,높음
성북구,돈암동,한진(609-1),-0.2925558772707442,105,202603,-0.2595701802430918,-0.291056527405851,968.4683775784748,76000.0,37.5978554,127.0209865,0.6410994218787684,성신여대입구,38,-0.15884760665273356,-0.1322089207531174,-13.2,Gray,False,False,높음
관악구,신림동,관악산휴먼시아2단지,-0.46337557207241414,104,202603,-0.38315276011165805,-0.45969562656962715,869.9621765867735,67650.0,37.45903694158076,126.91968237692367,2.323054202422564,금천구청,41,-0.48733485653721353,0.027639229967586387,2.8,Gray,False,False,높음
강동구,명일동,래미안솔베뉴,0.2766730265132759,102,202603,0.19900656495347335,0.27304375260861224,2580.1400806613847,155000.0,37.55264978731833,127.14518350291279,0.1716774161328685,명일,23,0.20027408041495182,0.07276967219366043,7.3,Gray,False,False,높음
강북구,미아동,벽산라이브파크,-0.44567325315246653,101,202603,-0.33818170998307784,-0.4406028973425897,851.3637425819891,59500.0,37.6208003962173,127.011390667734,0.19961458214773295,솔샘 우이신설선,39,-0.10637871135202004,-0.3342241859905697,-33.4,Blue,False,False,높음
노원구,하계동,장미(시영6),-0.10694406428361097,100,202603,-0.23872711297612742,-0.11321944755468318,1174.3135137814245,55050.0,37.63397497676321,127.06872879833537,0.2856418186715515,하계,41,-0.15804957856531054,0.04483013101062737,4.5,Gray,False,False,높음
노원구,상계동,보람아파트,-0.4221559376568406,100,202603,-0.33837159335803557,-0.4181662069759452,863.549263401935,55900.0,37.6630431151811,127.06444313634559,0.6392152632402378,마들,42,-0.23407749139114098,-0.18408871558480422,-18.4,Gray,False,False,높음
송파구,잠실동,잠실엘스,1.0372530849351633,99,202603,0.8378705739519166,1.027667387291738,3927.71670525685,329000.0,37.51293085517571,127.08146118769716,0.4519673531149307,잠실새내,9,0.4193442055801306,0.6083231817116073,60.8,Red,True,False,높음
동작구,대방동,대림아파트,0.2220669001194219,99,202603,0.1838802364630393,0.22023100282824967,1729.4002213948156,146000.0,37.50741732947618,126.92491463997779,0.6746906616201243,대방,32,-0.05097499932983518,0.2712060021580849,27.1,Gray,False,False,높음
강동구,상일동,고덕센트럴IPARK,0.17219837855548978,99,202602,0.11957279321176165,0.1696683023370413,2206.0178631197946,160000.0,37.551954493737526,127.16679836775783,0.5310776184425601,상일동,24,0.12330445075372587,0.046363851583315435,4.6,Gray,False,False,높음
영등포구,신길동,래미안에스티움,0.22206907282462762,99,202603,0.05435994199740521,0.2140061338425496,2176.663264697566,164000.0,37.5016056962076,126.91411564902936,0.418573472653005,신풍,32,-0.009581504112557315,0.22358763795510692,22.4,Gray,False,False,높음
성북구,석관동,두산,-0.16690663665922292,98,202603,-0.2216287963936989,-0.169563052180314,1099.531595950364,81850.0,37.61269453385915,127.06877829770445,0.32848073131575733,석계,33,-0.01390437356184604,-0.15565867861846797,-15.6,Gray,False,False,높음
강서구,가양동,가양6단지,0.24977039787476146,98,202603,0.15695161529600643,0.2452646317301617,1663.1641325832045,82400.0,37.56323020308249,126.85929280899492,0.4736002653504979,가양,35,-0.07512569986091999,0.32039033159108166,32.0,Red,False,False,높음
성북구,길음동,길음뉴타운2단지푸르지오,-0.17277521563786252,98,202603,-0.06091699328471714,-0.16734520484402052,1095.5323947371212,88250.0,37.61178635414699,127.01614615726216,0.6954411401042027,북한산보국문 우이신설선,40,-0.2053974807947253,0.03805227595070479,3.8,Gray,False,False,높음
구로구,개봉동,현대,-0.24193883947894523,97,202603,-0.3518348128307494,-0.24732589699619054,1008.9416540860267,82800.0,37.49207898790344,126.85849463174304,0.28563048953195486,개봉,45,-0.23358214880178851,-0.013743748194402022,-1.4,Gray,False,False,높음
관악구,봉천동,봉천우성,-0.1330224257629482,97,202603,-0.11290084667273516,-0.1320360738467613,1153.6998478550852,90500.0,37.48538833941678,126.95926400852285,0.7364379927264318,서울대입구,36,-0.13648896448097647,0.0044528906342151675,0.4,Gray,False,False,높음
성북구,길음동,길음뉴타운8단지(래미안),0.04369544025567899,96,202603,-0.06091699328471714,0.03851660691209502,1494.6947075924209,113000.0,37.6076630968992,127.018401254239,0.7060851383525569,정릉 우이신설선,40,-0.20711775694004309,0.2456343638521381,24.6,Gray,False,False,높음
노원구,상계동,상계주공1(고층),-0.3030546812085393,95,202603,-0.33837159335803557,-0.30482052681601407,995.7733113034404,52000.0,37.66727,127.07242,0.6705814960057204,불암산,42,-0.23914688174013743,-0.06567364507587664,-6.6,Gray,False,False,높음
성동구,행당동,대림e-편한세상,0.3743156921810503,94,202603,0.3581541371290771,0.3734994520269102,1883.8672273566715,142000.0,37.57091928039726,127.0637161922687,1.0358246156839168,장한평,16,0.19279636845655246,0.18070308357035775,18.1,Gray,False,False,높음
동대문구,전농동,전농SK,-0.11958775026416839,94,202602,-0.030261526060465786,-0.11507632479933493,1156.3505304327557,91875.0,37.57664050461763,127.06046527927865,1.2807766909030518,답십리,26,-0.03562863137561856,-0.07944769342371637,-7.9,Gray,False,False,높음
성동구,금호동1가,벽산,0.30007250584317796,94,202602,0.3187295038370544,0.3010147784691313,1743.1428117779756,145000.0,37.5641644558895,127.005632162458,0.34080950026253104,동대문사문화공원,16,0.3051242640271398,-0.004109485558008497,-0.4,Gray,False,False,높음
동대문구,장안동,장안현대홈타운(336),-0.0524055840971369,93,202603,-0.27001039340385397,-0.06350787028625511,1270.776485304047,99500.0,37.57105,127.06806,1.1183363167119578,장한평,22,0.06615927858239934,-0.12966714886865444,-13.0,Gray,False,False,높음
성북구,정릉동,정릉풍림아이원,-0.4862479009342802,92,202603,-0.3797119030473846,-0.48075635465145056,826.4628892758531,58000.0,37.618584289943925,127.007303584487,0.5809895773482375,솔샘 우이신설선,42,-0.2246670935173667,-0.25608926113408387,-25.6,Gray,False,False,높음
성북구,보문동6가,보문파크뷰자이,0.002041594165031877,91,202603,-0.05119819033628792,-0.0007313112777451959,1663.4952920129351,105000.0,37.58046129585219,127.01814209646494,0.5882459149137083,보문,32,-0.03700385501194947,0.03627254373420428,3.6,Gray,False,False,높음
동작구,상도동,힐스테이트 상도 센트럴파크,0.2734048217085092,91,202603,0.13802487378216974,0.2663537827540124,1907.0960101405012,165000.0,37.495407955595,126.95087235480803,0.26280506604556936,숭실대입구,28,0.09112808673936001,0.17522569601465238,17.5,Gray,False,False,높음
강동구,암사동,프라이어팰리스,0.24565782489023844,91,202603,0.19820987351617922,0.24318657742283953,1775.902781895866,149700.0,37.55352610318784,127.13949839212972,0.4410387688802975,암사사공원,16,0.2889252741510897,-0.04573869672825018,-4.6,Gray,False,False,높음
노원구,상계동,상계주공16(고층),-0.5148177406895894,91,202603,-0.33837159335803557,-0.5056278371827377,833.777201894828,48000.0,37.66727,127.07242,0.6705814960057204,불암산,42,-0.23914688174013743,-0.2664809554426003,-26.6,Gray,False,False,높음
구로구,구로동,구로두산,-0.1697747528846351,90,202603,-0.2553039333509355,-0.17427628869865092,1057.6426234362189,51350.0,37.48934033417104,126.88926030675862,0.37952960775802097,남구로,43,-0.21099086322390992,0.036714574525259,3.7,Gray,False,False,높음
성북구,돈암동,한신,-0.2675129796871547,89,202603,-0.2595701802430918,-0.2670904903550237,929.4222471262093,84000.0,37.59488264035065,127.01016832833305,0.6489289080969541,성신여대입구,38,-0.1601130031754473,-0.10697748717957639,-10.7,Gray,False,False,높음
은평구,녹번동,래미안베라힐즈,-0.1428623253802859,89,202603,-0.21842435661441048,-0.14688158236082444,1578.0893602152084,120000.0,37.60387396735811,126.93624891606876,0.34306677399425056,녹번,53,-0.3939337666140883,0.24705218425326386,24.7,Gray,False,False,높음
노원구,중계동,주공5,-0.08438689814699309,88,202603,-0.2126795577727421,-0.09128435296558172,1169.1937157075874,69150.0,37.652822754280386,127.0759250478545,0.9054236576679604,상계,36,-0.16380031887212476,0.07251596590654304,7.3,Gray,False,False,높음
성북구,장위동,꿈의숲아이파크,-0.27142202507759217,88,202603,-0.2882447822080515,-0.27232647438568136,1605.2183711567761,117000.0,37.61887549275114,127.04846685578345,1.1623317908004416,돌곶이,37,-0.22420524628745653,-0.04812122809822483,-4.8,Gray,False,False,높음
노원구,상계동,상계주공4(고층),-0.2437828148831705,88,202603,-0.33837159335803557,-0.24886823308074388,1045.1449179607487,51900.0,37.66727,127.07242,0.6705814960057204,불암산,42,-0.23914688174013743,-0.009721351340606449,-1.0,Gray,False,False,높음
송파구,문정동,올림픽훼밀리타운,0.481570790827658,87,202603,0.2736296354318419,0.4702696410778854,2332.3494965818186,260000.0,37.48907179365075,127.11548723573253,0.4012128179047534,가락시장,18,0.25759471808928086,0.21267492298860452,21.3,Gray,False,False,높음
강동구,상일동,고덕자이,0.10251805949180849,87,202602,0.11957279321176165,0.10344494719397987,2230.735823004355,165000.0,37.55234547559315,127.17061754567607,0.6360774253586277,상일동,24,0.10633444954871762,-0.002889502354737755,-0.3,Gray,False,False,높음
송파구,가락동,가락(1차)쌍용아파트,0.6004912929902596,86,202603,0.34098738251185506,0.586232836370567,2438.042374798754,165250.0,37.49561144556601,127.1284385164609,0.35174760687955553,경찰병원,16,0.30335645427659624,0.28287638209397076,28.3,Gray,False,False,높음
송파구,문정동,문정시영,0.4498720117963945,86,202603,0.2736296354318419,0.4401883647433971,2010.1936156686938,80000.0,37.490597626696704,127.1354462575153,0.795074255836695,거여,18,0.19393908602079424,0.24624927872260288,24.6,Gray,False,False,높음
양천구,신월동,목동센트럴아이파크위브2단지,-0.22411241428287318,86,202603,-0.3405313796547355,-0.2305090607318766,1548.6028419789677,111150.0,37.5151084313355,126.8412897604,1.170510951975493,신정네거리,37,-0.22552715705161175,-0.004981903680264854,-0.5,Gray,False,False,높음
동작구,노량진동,신동아리버파크,0.18588565280640063,86,202603,0.13900498385215174,0.1833097918748485,1593.9011439308954,129600.0,37.5075001627655,126.944345294285,0.5477146007223265,장승배기,28,0.04508119114223064,0.13822860073261786,13.8,Gray,False,False,높음
성동구,행당동,행당한진타운,0.39842298191555425,86,202603,0.3581541371290771,0.39621040802618734,1987.238664696975,152000.0,37.5559331868365,127.028746219483,0.17279944491680058,행당,16,0.33227794102341873,0.06393246700276861,6.4,Gray,False,False,높음
중랑구,신내동,신내6대주,-0.2017197613766051,86,202603,-0.3905996466254493,-0.21209777704961855,1004.6384635785809,50500.0,37.6107129,127.0931277,0.7543466388958218,봉화산,37,-0.1582669486581929,-0.05383082839142564,-5.4,Gray,False,False,높음
송파구,잠실동,트리지움,0.9445402274893855,86,202603,0.8378705739519166,0.9386792575147994,3649.5945336447453,314500.0,37.50991803073123,127.09114418702445,0.4664454633721008,잠실새내,9,0.4170042627199802,0.5216749947948192,52.2,Red,False,False,높음
강서구,가양동,가양2단지(성지),0.2854528450603843,85,202603,0.15695161529600643,0.2783138878512522,1610.5200594751095,60700.0,37.57041674787212,126.84714016116638,0.5238235174595536,양천향교,35,-0.08324274953789124,0.36155663738914345,36.2,Red,False,False,높음
강북구,미아동,삼성래미안트리베라2단지,-0.18757156245084014,85,202603,-0.33818170998307784,-0.19593879286929777,1176.6569955808677,88500.0,37.61679327600874,127.02105053677946,0.505567789163278,삼양사거리 우이신설선,39,-0.1558266717266542,-0.040112121142643564,-4.0,Gray,False,False,높음
도봉구,방학동,신동아아파트1,-0.7482653805513512,85,202603,-0.6190578769928765,-0.7410871859092136,643.4844737112293,37000.0,37.659948377751775,127.0268426379,1.2738954599421608,솔밭공원 우이신설선,38,-0.2611196949913738,-0.47996749091783986,-48.0,Blue,False,False,높음
동대문구,이문동,대림e-편한세상,-0.06315797055359489,84,202603,-0.17481375470820362,-0.06943076741621335,1231.491504052674,93000.0,37.60452201412,127.06497244659619,0.3721695430511593,신이문,33,-0.02096533119187094,-0.048465436224342406,-4.8,Gray,False,False,높음
영등포구,신길동,보라매에스케이뷰,0.07944523990727387,84,202602,0.05435994199740521,0.07803595350784304,2087.2184329193587,160000.0,37.50299762288347,126.91773532808027,0.4259785348031188,보라매,32,-0.010778305490592666,0.0888142589984357,8.9,Gray,False,False,높음
노원구,상계동,상계주공2(고층),-0.24915913631001926,84,202603,-0.33837159335803557,-0.2541710720992337,1056.4739799121435,56000.0,37.66727,127.07242,0.6705814960057204,불암산,42,-0.23914688174013743,-0.015024190359096246,-1.5,Gray,False,False,높음
송파구,잠실동,리센츠,1.0178696120467312,84,202603,0.8378705739519166,1.0077573065357868,3858.7797373534695,340000.0,37.51275285867244,127.0884194493474,0.22397822993681904,잠실새내,9,0.4561916609107297,0.551565645625057,55.2,Red,False,False,높음
서대문구,현저동,독립문극동(200-0),0.16699001179292586,83,202603,0.1093359420086345,0.16371421237336384,1526.8128590583813,116000.0,37.57386,126.9541,1.7400626268381953,경복궁,38,-0.33646133243157017,0.500175544804934,50.0,Red,False,False,높음
강서구,가양동,가양도시개발9-2단지,0.2649705518747679,83,202603,0.15695161529600643,0.2588331122964292,1561.5689131777876,59000.0,37.5678839,126.8498488,0.6939767859059959,양천향교,35,-0.1107428112559129,0.3695759235523421,37.0,Red,False,False,높음
강서구,내발산동,우장산힐스테이트,0.327134372954691,83,202603,0.0009032731049222545,0.3085985150086814,1842.4764698293727,136000.0,37.55629539035237,126.83896612119196,0.2862255611403175,발산,42,-0.17702752295853708,0.4856260379672185,48.6,Red,False,False,높음
성동구,하왕십리동,텐즈힐(1단지),0.28513177220550223,83,202603,0.21652617315376482,0.2812337268048353,2146.4151881684643,189000.0,37.5688608776878,127.02794524824769,0.5056653793216149,상왕십리,21,0.1840623614160452,0.09717136538879012,9.7,Gray,False,False,높음
영등포구,대림동,현대3차,-0.006139696390720927,83,202603,-0.1990935576028695,-0.017102983959593008,1338.2565301467905,93000.0,37.50553179384284,126.89561511706205,0.4628689119550963,신도림,38,-0.13004210636651237,0.11293912240691936,11.3,Gray,False,False,높음
양천구,신월동,신월시영,-0.19988710839143448,82,202603,-0.3405313796547355,-0.2079701124870265,1119.1711799452373,54225.0,37.51709330487288,126.83277476226287,1.8078358632706688,신정네거리,37,-0.32853119896672034,0.12056108647969385,12.1,Gray,False,False,높음
영등포구,신길동,삼환,0.05046384245023362,82,202603,0.05435994199740521,0.05068775621731245,1379.4901009181547,100000.0,37.5067247946285,126.918622464212,0.7766589866147567,보라매,32,-0.0674550543780773,0.11814281059538975,11.8,Gray,False,False,높음
중랑구,면목동,사가정센트럴아이파크,-0.2214952163929926,82,202603,-0.3450237621973327,-0.22859455810588572,1558.5714024960619,124750.0,37.58218232147488,127.08173357581516,0.6124344647708398,사가정,25,0.09127200930867241,-0.3198665674145581,-32.0,Blue,False,False,높음
강북구,미아동,삼각산아이원,-0.3554179194520051,82,202603,-0.33818170998307784,-0.3544273327009173,891.1110268181909,71000.0,37.6155486176273,127.017981853747,0.6531834156449631,솔샘 우이신설선,39,-0.17968421425789582,-0.17474311844302148,-17.5,Gray,False,False,높음
관악구,봉천동,관악드림(삼성),-0.05017500795119555,81,202603,-0.11290084667273516,-0.05382185903965716,1261.409551937013,97800.0,37.49020798172745,126.95024706445757,0.7417108290400067,숭실대입구,36,-0.13734115689183213,0.08351929785217496,8.4,Gray,False,False,높음
동작구,사당동,극동(105),0.25733716436531645,81,202603,0.1227145604811726,0.2495102687906569,1704.5998189336563,140000.0,37.4921977655063,126.97378402992034,0.8614758963842682,남성,37,-0.17558111029397372,0.4250913790846306,42.5,Red,False,False,높음
노원구,상계동,상계주공10(고층),-0.2900924761365874,80,202603,-0.33837159335803557,-0.2929324242084373,1021.0754475273943,55900.0,37.66727,127.07242,0.6705814960057204,불암산,42,-0.23914688174013743,-0.05378554246829986,-5.4,Gray,False,False,높음
송파구,장지동,위례24단지(꿈에그린),0.41973420020397717,80,202602,0.33258015649724537,0.41460749175064,2338.2760197132257,138700.0,37.47587068082155,127.1392951377438,1.1976504282372835,장지,26,-0.02219381831226175,0.43680131006290174,43.7,Red,False,False,높음
구로구,개봉동,한진,-0.4447864450560666,79,202603,-0.3518348128307494,-0.43925360980455963,818.4104438561784,60500.0,37.48467909491101,126.85194169123484,0.6518568125859777,광명사거리,45,-0.29277141139253215,-0.14648219841202748,-14.6,Gray,False,False,높음
강서구,등촌동,등촌동아이파크,-0.15815702347893437,79,202603,-0.06796501332819505,-0.15278845144615227,1134.494220410999,109000.0,37.54391753935604,126.86022983444474,0.8918417443461234,등촌,34,-0.12383801816141426,-0.02895043328473801,-2.9,Gray,False,False,높음
관악구,신림동,신림현대,-0.1927779872192937,79,202603,-0.38315276011165805,-0.20410981893907731,1018.2873738795713,62000.0,37.475134295560736,126.93247282827244,0.3497353440806357,서원 신림선,41,-0.16840833288468593,-0.035701486054391385,-3.6,Gray,False,False,높음
동대문구,이문동,쌍용,-0.163877811019766,79,202603,-0.17481375470820362,-0.16452876004883968,1139.3774966492304,82000.0,37.59978440549867,127.06851501787186,0.24290853498451848,신이문,33,-7.425027393259676e-05,-0.16445450977490708,-16.4,Gray,False,False,높음
중구,신당동,약수하이츠,0.3560335689243912,79,202603,0.1805329860512685,0.3455871056581339,1814.3436187129778,124000.0,37.55506002671394,127.01449516875203,0.3235875542732379,약수,23,0.17572246167382677,0.16986464398430712,17.0,Gray,False,False,높음
강서구,화곡동,화곡푸르지오,-0.1622470563913136,79,202603,-0.19304958963224267,-0.16408054051279747,1061.6555478795522,112000.0,37.544622377545736,126.83144140674757,0.634767753868832,우장산,45,-0.29000948872295784,0.12592894821016037,12.6,Gray,False,False,높음
서대문구,홍제동,홍제역해링턴플레이스,-0.20566810104264494,79,202603,-0.19733448483129434,-0.20517205245863596,1788.609818524901,135000.0,37.58954663193398,126.94770704913998,0.3236762805951967,홍제,47,-0.27749828568557566,0.0723262332269397,7.2,Gray,False,False,높음
강서구,마곡동,마곡13단지힐스테이트마스터,0.13870157170595845,78,202603,0.049704657161385495,0.13334031179363479,1952.4358622936763,144900.0,37.55771609731765,126.81777865696877,0.6074563837311908,송정,43,-0.24782824203937948,0.3811685538330143,38.1,Red,False,False,높음
강동구,천호동,우성,-0.009835434042241619,77,202603,-0.12307734175375379,-0.0167404284148948,1394.5433933074355,96700.0,37.5497679445997,127.13881692627864,0.4951443355243161,명일,18,0.2424135666756747,-0.2591539950905695,-25.9,Gray,False,False,높음
동대문구,장안동,래미안장안2차,-0.0021889752610321756,77,202603,-0.27001039340385397,-0.018519549538033506,1306.719097657117,104500.0,37.57396497479295,127.07538758267157,0.9992516871627533,용마산,22,0.08540565975492243,-0.10392520929295593,-10.4,Gray,False,False,높음
금천구,시흥동,관악산벽산타운5,-0.6651832927753341,77,202603,-0.5597068644041562,-0.6587518032405061,674.3527185943543,53000.0,37.4497247023779,126.920614527311,2.2924829381700165,석수,45,-0.5579283497322802,-0.10082345350822586,-10.1,Gray,False,False,높음
노원구,월계동,동신,-0.41547050503476,76,202603,-0.2535145399746606,-0.4054732232409267,928.8391633675047,75900.0,37.617552298421344,127.06126408168264,0.4817961335469592,석계,30,0.01796769075278737,-0.4234409139937141,-42.3,Blue,False,False,높음
동작구,사당동,사당롯데캐슬골든포레,-0.05089763644673298,76,202602,0.1227145604811726,-0.040180834167232636,1892.6752328155692,134250.0,37.49167204915123,126.96221982277808,0.9177026269739972,숭실대입구,37,-0.18466843829852997,0.14448760413129733,14.4,Gray,False,False,높음
노원구,상계동,상계주공14(고층),-0.37644070343397756,75,202603,-0.33837159335803557,-0.37406138405423117,909.242849329484,40100.0,37.66727,127.07242,0.6705814960057204,불암산,42,-0.23914688174013743,-0.13491450231409374,-13.5,Gray,False,False,높음
금천구,독산동,금천롯데캐슬골드파크3차,-0.25621893522218486,75,202603,-0.3731465223679119,-0.26352690941879275,1535.504815253311,94500.0,37.46011751264842,126.89680518190217,0.5195261395764229,금천구청,47,-0.30915141382483813,0.045624504406045374,4.6,Gray,False,False,높음
도봉구,도봉동,한신,-0.5781069630876404,75,202603,-0.586324887656192,-0.5786205833731749,686.7690062879195,58000.0,37.68669283179385,127.04754842018184,0.3396125907535924,도봉산,43,-0.20453950063038662,-0.3740810827427883,-37.4,Blue,False,False,높음
강동구,둔촌동,둔촌푸르지오,0.25248493352217993,75,202603,0.05490215018281366,0.24013600956346953,1856.9534540710226,140000.0,37.534146130429356,127.14651776352255,0.6601271336594702,중앙보훈병원,17,0.2346327533522941,0.005503256211175422,0.6,Gray,False,False,높음
양천구,목동,목동신시가지1,0.8080746134267546,75,202602,0.36295510837289174,0.7802546443608882,3070.2030438296583,233000.0,37.53875058211887,126.88104061588135,0.6418812920479449,신목동,39,-0.17785757231736476,0.958112216678253,95.8,Red,True,False,높음
양천구,신정동,신트리4,-0.06999959815930008,75,202603,0.16383872304343677,-0.05538470308412903,1188.664864471352,62000.0,37.51126088755658,126.85076718393557,1.0139834498490374,신정네거리,48,-0.40794888633826853,0.3525641832541395,35.3,Red,False,False,높음
서대문구,남가좌동,DMC에코자이,-0.030862087633948702,74,202603,-0.02479971900169507,-0.03047839341671746,1766.7182016468741,122250.0,37.57741217466742,126.91915917792936,1.0371730555777605,가좌 경의중앙선,46,-0.3739295748665459,0.34345118144982845,34.3,Red,False,False,높음
관악구,봉천동,봉천동아,-0.15258740764134646,74,202603,-0.11290084667273516,-0.15007559998510522,1111.201322986619,91800.0,37.48959290678911,126.95555290073528,0.7668776953464342,숭실대입구,36,-0.14140860962427138,-0.008666990360833848,-0.9,Gray,False,False,높음
강동구,성내동,성내동삼성아파트,0.2080738224430855,74,202602,-0.03168482636065309,0.19289922441753243,1595.5345468171483,123000.0,37.530845468827806,127.12566485026886,0.4657730994804355,강동구청,19,0.22827692662753096,-0.03537770220999853,-3.5,Gray,False,False,높음
도봉구,창동,주공17단지,-0.3691913404081453,74,202603,-0.26856099041075626,-0.36282233091463967,858.2671931049837,31450.0,37.644207293332194,127.05338160929209,0.18232141337698662,녹천,34,-0.009165798991060625,-0.35365653192357904,-35.4,Blue,False,False,높음
중랑구,중화동,한신아파트상가동유치원동(103~109),-0.17589829796372328,74,202603,-0.2814951834570966,-0.1825816451468482,1109.5835880222849,69250.0,37.6005135,127.0793787,0.22682410338277353,중화,28,0.09694330676384144,-0.2795249519106896,-28.0,Gray,False,False,높음
성북구,상월곡동,동아에코빌,-0.33682324385995593,74,202603,-0.34599044496164216,-0.33740344646132847,961.2569850745039,70250.0,37.6077424601838,127.044965790157,0.3648906002342124,상월곡,36,-0.07643971407282368,-0.2609637323885048,-26.1,Gray,False,False,높음
송파구,문정동,문정래미안,0.05938633206489731,73,202603,0.2736296354318419,0.07311987715252197,1456.5692992986676,179000.0,37.490621445698174,127.13029006224446,0.7879545658742327,경찰병원,18,0.19508976572955644,-0.12196988857703447,-12.2,Gray,False,False,높음
강남구,수서동,까치마을,1.0451630140828085,73,202603,0.9145140920855864,1.0367880831855507,3455.8605722154,140000.0,37.48473577232046,127.08761756807274,0.3187636381086495,일원,15,0.3275709023886283,0.7092171807969224,70.9,Red,True,False,높음
은평구,응암동,백련산에스케이뷰아이파크,-0.32294556035808053,73,202602,-0.3107939037815979,-0.3221666080134342,1397.1960810671155,96000.0,37.594928732020826,126.92101876949187,0.6245507940905731,응암,46,-0.30724183057147236,-0.014924777441961856,-1.5,Gray,False,False,높음
노원구,상계동,상계주공11(고층),-0.24752559002637295,73,202603,-0.33837159335803557,-0.2533490517784026,1042.4467034331155,56500.0,37.66727,127.07242,0.6705814960057204,불암산,42,-0.23914688174013743,-0.014202170038265183,-1.4,Gray,False,False,높음
강서구,방화동,방화5,0.051212947425430755,73,202603,-0.22674360477215127,0.033395219720457545,1238.4758181532934,47500.0,37.577188249249225,126.81025282111108,0.23083003178401493,방화,47,-0.26249253471818845,0.295887754438646,29.6,Red,False,False,높음
성동구,금호동3가,두산,0.24088688416896561,73,202603,0.26824973991243634,0.24264091338329066,1645.1712312995912,145000.0,37.54998535285399,127.01642478254341,0.19880741926345802,금호,20,0.252540147706215,-0.00989923432292436,-1.0,Gray,False,False,높음
성동구,옥수동,래미안 옥수 리버젠,0.7154251170285761,73,202603,0.5027766989794326,0.7017938081792722,3082.675594970611,220000.0,37.5449806355556,127.01383916640965,0.40475112140246144,금호,22,0.18148845851087358,0.5203053496683986,52.0,Red,False,False,높음
동작구,신대방동,보라매자이더포레스트,-0.018608957102362052,73,202603,-0.0628250432400909,-0.021443321598370313,2152.248086950863,136000.0,37.49844834956893,126.92575255084692,0.26118318022039116,신대방삼거리,44,-0.2107473900964958,0.18930406849812548,18.9,Gray,False,False,높음
동작구,상도동,래미안상도3차,0.2551490325191933,73,202603,0.13802487378216974,0.24764107362579432,1662.3586089329774,147500.0,37.49935230215523,126.95473287857449,0.35142115750478936,숭실대입구,28,0.07680601108022878,0.17083506254556555,17.1,Gray,False,False,높음
성동구,행당동,서울숲 한신 더 휴,0.37901655738046214,73,202602,0.3581541371290771,0.37767922274896304,1951.095491869938,155000.0,37.55559257829403,127.0354867067092,0.5623041745667298,행당,16,0.26932643734304157,0.10835278540592147,10.8,Gray,False,False,높음
도봉구,창동,동아청솔,-0.11415723740657271,72,202603,-0.26856099041075626,-0.12418345513411709,1163.2515304305516,78675.0,37.65728004823488,127.04828781935237,0.43479600124830725,창동,34,-0.04997057936399141,-0.07421287577012568,-7.4,Gray,False,False,높음
은평구,응암동,백련산힐스테이트1차,-0.2589835796259598,72,202603,-0.3107939037815979,-0.26234788638931295,1105.4654227812325,76500.0,37.59248253531061,126.92515988902584,1.036056493772919,새절,46,-0.37374911686638224,0.11140123047706929,11.1,Gray,False,False,높음
광진구,자양동,더샵스타시티,0.12504133906250944,72,202602,0.22668519296788042,0.13164158931610495,1805.831758373733,230000.0,37.53780427161658,127.07263111759445,0.36636758141171594,건대입구,14,0.3387607840260039,-0.20711919470989895,-20.7,Gray,False,False,높음
강동구,천호동,래미안강동팰리스,0.05803417698134593,72,202602,-0.12307734175375379,0.046273688751794,2042.4937995690614,151250.0,37.53738879127191,127.13203463437566,0.170564642029944,강동,18,0.29487192780507815,-0.24859823905328415,-24.9,Gray,False,False,높음
영등포구,신길동,신길센트럴자이아파트,0.08538984646848809,71,202603,0.05435994199740521,0.08334840538486421,2233.967134101204,154000.0,37.50299031177911,126.9078328169458,0.3610902501913168,신풍,32,-0.00029110270046350806,0.08363950808532772,8.4,Gray,False,False,높음
마포구,도화동,우성,0.2138262766388444,71,202602,0.21040064944707562,0.21360090642885962,1622.4571836734133,148000.0,37.53636953706402,126.94706194332682,0.3695532675278783,마포,34,-0.03942609073708625,0.2530269971659459,25.3,Gray,False,False,높음
서대문구,홍제동,서대문푸르지오센트럴파크,-0.04161153429720702,71,202603,-0.19733448483129434,-0.05185646525339698,2059.370546152474,127000.0,37.58095230994799,126.95037354140833,1.0298255849831173,홍제,47,-0.3916256817098156,0.3397692164564186,34.0,Red,False,False,높음
노원구,하계동,청솔(시영7),-0.2883058322256875,71,202603,-0.23872711297612742,-0.2850440743803217,993.2144318354182,48200.0,37.6382503,127.0738302,0.550675242490924,하계,41,-0.20088410991999606,-0.08415996446032564,-8.4,Gray,False,False,높음
구로구,신도림동,대림2,0.1642008534399552,71,202603,0.07568493397905163,0.15837743768594836,1563.8241566366987,119900.0,37.50584552747279,126.88059069115477,0.3169738251379213,구로,38,-0.10646263634833109,0.26484007403427945,26.5,Gray,False,False,높음
구로구,구로동,신도림태영타운,0.11768554299976423,70,202603,-0.2553039333509355,0.09281957790971758,1456.505873005819,113250.0,37.50607682913514,126.88862938029861,0.35507278689755023,신도림,43,-0.2070381675793873,0.2998577454891049,30.0,Red,False,False,높음
은평구,응암동,힐스테이트녹번역,-0.1983986009534865,70,202602,-0.3107939037815979,-0.20589162114202725,1678.5823692486144,121500.0,37.59957265256036,126.93462645786111,0.17331058528600674,녹번,46,-0.23431267848948045,0.028421057347453205,2.8,Gray,False,False,높음
노원구,하계동,학여울청구,-0.2749247738397947,70,202603,-0.23872711297612742,-0.2725115964488835,949.7153619472763,85000.0,37.63578987754901,127.06163253294262,0.3711768168267944,월계,41,-0.17187368990796426,-0.10063790654091925,-10.1,Gray,False,False,높음
은평구,녹번동,북한산푸르지오,-0.14471313659519403,70,202603,-0.21842435661441048,-0.14962721792980846,1352.1484427560517,106350.0,37.60683748279,126.93654536993654,0.6546423182194325,불광,53,-0.44429040550942456,0.29466318757961607,29.5,Red,False,False,높음
성북구,종암동,래미안크리시엘,-0.11305190366262965,70,202603,-0.12011229559905745,-0.1135225964583915,1183.5677330851333,87250.0,37.60098614423668,127.03015416057758,0.5226045742885339,길음,33,-0.04527854410486587,-0.06824405235352562,-6.8,Gray,False,False,높음
양천구,신정동,목동우성2,-0.07728123036254289,70,202603,0.16383872304343677,-0.06120656680214424,1136.0969774291175,108750.0,37.5063433959698,126.865160916643,0.6740479704801554,양천구청,48,-0.35300873298040325,0.291802166178259,29.2,Red,False,False,높음
구로구,고척동,대우,-0.4177457933040474,69,202603,-0.3552431491269376,-0.4135226416704588,845.8203059798351,64500.0,37.5028484589891,126.856049577532,0.9423771151080617,개봉,46,-0.3586087159883329,-0.05491392568212594,-5.5,Gray,False,False,높음
금천구,시흥동,남서울힐스테이트,-0.32782700735328046,69,202603,-0.5597068644041562,-0.3434945652621234,1132.0816188011204,90700.0,37.44617350236848,126.90109718872206,1.2368292314235891,석수,45,-0.3873142771761433,0.0438197119140199,4.4,Gray,False,False,높음
강북구,미아동,두산위브트레지움,-0.2790912880548737,69,202603,-0.33818170998307784,-0.2830838841311037,1084.4033403848587,83000.0,37.61776520417838,127.01693126286317,0.4068469510710644,솔샘 우이신설선,39,-0.13987147342116157,-0.14321241070994212,-14.3,Gray,False,False,높음
성북구,석관동,래미안아트리치,-0.2031961150898,69,202603,-0.2216287963936989,-0.20444156652925263,1512.570333634081,100000.0,37.60627685061643,127.06385619240235,0.5892329910758848,신이문,33,-0.056046985937077576,-0.14839458059217506,-14.8,Gray,False,False,높음
강동구,고덕동,아남1,0.19432920871863615,68,202603,0.28424493496198805,0.2004878201051671,1521.5998815759945,114500.0,37.55854052261666,127.14590003026079,0.7502132234619898,암사사공원,22,0.12565509595125368,0.07483272415391343,7.5,Gray,False,False,높음
동대문구,답십리동,청계한신휴플러스,0.1553470471397656,68,202603,-0.06863442536384452,0.140005850392943,1617.1417478283656,119000.0,37.57265375756036,127.04615818246718,0.8306138821311567,청량리,24,0.07489359262898287,0.06511225776396012,6.5,Gray,False,False,높음
서대문구,홍은동,홍은동벽산,-0.3280985810161223,68,202603,-0.39441654900378864,-0.33264090759062004,900.856131528403,71000.0,37.59537653648853,126.94481890509356,0.7341042484606519,홍제,50,-0.400482190591525,0.06784128300090497,6.8,Gray,False,False,높음
영등포구,대림동,e편한세상영등포아델포레,-0.13541017705820088,68,202602,-0.1990935576028695,-0.1397720524379727,1677.3462143211495,121500.0,37.49434448482734,126.90697271850476,0.6878063919882517,신풍,38,-0.1663963570963778,0.026624304658405096,2.7,Gray,False,False,높음
성북구,길음동,길음뉴타운6단지(래미안),0.14530999518311538,67,202603,-0.06091699328471714,0.13098867653951593,1544.2684033299147,120000.0,37.60627118257101,127.02289468382924,0.37241122125014764,길음,40,-0.15318959324509418,0.28417826978461014,28.4,Gray,False,False,높음
성북구,길음동,길음동동부센트레빌(1278-0),-0.14274081484262868,67,202603,-0.06091699328471714,-0.13705860501221814,1133.2275156135327,92000.0,37.6085308,127.0201946,0.714050069150973,길음,40,-0.20840504392862746,0.07134643891640932,7.1,Gray,False,False,높음
은평구,불광동,북한산현대힐스테이트3차아파트,-0.1485422431040801,67,202603,-0.18670662596853313,-0.1511925474696671,1213.8191880125135,84000.0,37.61848006782477,126.93490667114352,0.1633723035583335,독바위,54,-0.3837752622834165,0.23258271481374942,23.3,Gray,False,False,높음
강북구,미아동,꿈의숲해링턴플레이스,-0.4020365881498212,67,202603,-0.33818170998307784,-0.397602221610464,1186.3462555766346,87600.0,37.61878583148684,127.0343885577369,0.7201463021294539,미아사거리,39,-0.19050671286725995,-0.20709550874320404,-20.7,Gray,False,False,높음
송파구,장지동,송파더센트레,0.398249730029279,67,202603,0.33258015649724537,0.3936893429784433,2360.120853696302,125000.0,37.47929357128287,127.1400928993921,1.23020447253009,장지,26,-0.027455181995705624,0.42114452497414895,42.1,Red,False,False,높음
강동구,고덕동,고덕센트럴푸르지오,0.02635019964896674,66,202603,0.28424493496198805,0.04451180072734852,2213.075446356585,131500.0,37.557711676927354,127.17008653243371,0.386044317893087,상일동,22,0.18451184005241966,-0.14000003932507116,-14.0,Gray,False,False,높음
노원구,월계동,주공2,-0.43198606086097546,66,202603,-0.2535145399746606,-0.41941764389715047,818.7736640380066,36000.0,37.62862701737198,127.0523543046775,0.7715784475048012,월계,30,-0.028866740295124815,-0.39055090360202566,-39.1,Blue,False,False,높음
양천구,신정동,래미안목동아델리체(101동~118동),-0.000867239863182614,66,202603,0.16383872304343677,0.010731771609114527,1964.0757996711957,159650.0,37.5163163,126.8634455,0.4806706235732937,양천구청,48,-0.3217552106510344,0.33248698226014894,33.2,Red,False,False,높음
성북구,길음동,길음뉴타운1단지(래미안길음1차),0.03934230785916669,66,202603,-0.06091699328471714,0.032281793694104444,1371.8395291436948,98000.0,37.6085308,127.0201946,0.714050069150973,길음,40,-0.20840504392862746,0.2406868376227319,24.1,Gray,False,False,높음
영등포구,영등포동7가,아크로타워스퀘어,0.2433866939095146,66,202603,0.14389576301340795,0.2363802903252817,2292.96554795744,173900.0,37.52375784194018,126.90705838475566,0.20259671710488725,영등포시장,30,0.0630917207164513,0.1732885696088304,17.3,Gray,False,False,높음
동대문구,용두동,이편한세상청계센트럴포레,-0.007209497913981245,66,202603,-0.056876971091052546,-0.010707207292648237,2035.019187675851,144000.0,37.571714921804386,127.02922205568832,0.637645964697488,신설동,26,0.0683137426080822,-0.07902094990073044,-7.9,Gray,False,False,높음
송파구,거여동,송파시그니처롯데캐슬,0.13276604857619992,66,202603,0.14675271354528915,0.1337510249824738,2347.1863782351084,170250.0,37.49573061531137,127.14752149321824,0.42490542228378725,거여,27,0.08381313181992378,0.04993789316255001,5.0,Gray,False,False,높음
성북구,하월곡동,래미안월곡,-0.1179788501765363,66,202603,-0.2372317772574219,-0.1263769436329367,1190.0324671751262,92750.0,37.6104410267885,127.03687183077496,0.6758320883921987,미아사거리,36,-0.12669387723472392,0.00031693360178722263,0.0,Gray,False,False,높음
서대문구,북아현동,두산,0.2282362937922237,66,202603,0.2170670358756406,0.22744972633330937,1697.103624638648,99750.0,37.559180548238245,126.95011069615892,0.4177281643993328,이대,37,-0.10386288749263539,0.3313126138259448,33.1,Red,False,False,높음
동대문구,답십리동,답십리청솔우성,-0.16156323128758857,65,202603,-0.06863442536384452,-0.15492545943589256,1110.4150708129107,85000.0,37.5746549056229,127.060087841828,1.0813485563612903,답십리,24,0.03437001597875189,-0.18929547541464445,-18.9,Gray,False,False,높음
서대문구,천연동,천연뜨란채,0.22456354094650582,65,202603,0.1922471762974455,0.22225522918585863,1633.7768787601192,89500.0,37.56756304357773,126.95844959649767,1.017768920291303,충정로,35,-0.16307388758906405,0.38532911677492265,38.5,Red,False,False,높음
서대문구,남가좌동,남가좌동현대,-0.04705662338395218,65,202603,-0.02479971900169507,-0.04546684449950524,1219.1983305322103,82000.0,37.5748720882277,126.9202135771335,0.8311338750310008,가좌 경의중앙선,46,-0.34062965513476606,0.29516281063526084,29.5,Red,False,False,높음
마포구,아현동,더클래시,0.3795185002771024,65,202603,0.4342512362674434,0.3834279814192696,3090.4376296307532,197000.0,37.555724469099374,126.95045818026755,0.3752478205200853,이대,37,-0.09699724165962686,0.48042522307889646,48.0,Red,False,False,높음
은평구,수색동,DMC롯데캐슬더퍼스트,-0.20374100091668104,65,202603,-0.22993362483009094,-0.20561190262478177,1600.5133762273254,109000.0,37.58487289001885,126.89166068411926,0.568344182283887,수색 경의중앙선,44,-0.2603905535293176,0.05477865090453585,5.5,Gray,False,False,높음
강서구,등촌동,주공5,0.10681322980696624,65,202603,-0.06796501332819505,0.09432906958302616,1448.1080456924947,79500.0,37.56045148168028,126.8448697425571,0.6589855601571121,발산,34,-0.08620395156317884,0.180533021146205,18.1,Gray,False,False,높음
은평구,응암동,백련산힐스테이트2차,-0.23681729399601587,64,202602,-0.3107939037815979,-0.24217791789352183,1137.8282559559232,77600.0,37.59125998898949,126.92390655209836,0.9108917754474308,새절,46,-0.35352007565961197,0.11134215776609013,11.1,Gray,False,False,높음
은평구,불광동,라이프미성,-0.2501811918368294,64,202603,-0.18670662596853313,-0.2455815856144891,1000.0388890529529,75000.0,37.61492995473932,126.92830877340641,0.46061515072870324,불광,54,-0.4318154599067645,0.18623387429227542,18.6,Gray,False,False,높음
성북구,길음동,길음뉴타운9단지(래미안),0.00014397712201615065,64,202603,-0.06091699328471714,-0.004280730878471768,1465.0493982014439,115500.0,37.60370214238333,127.01965844626247,0.47708967651357903,길음,40,-0.17010765780285864,0.16582692692438686,16.6,Gray,False,False,높음
영등포구,여의도동,시범,0.32072465565295355,64,202603,0.3441684122695857,0.32242347859618775,3250.4531464009397,279500.0,37.520777378761906,126.93720428886729,0.8000171406951899,여의나루,30,-0.0334629835824628,0.35588646217865055,35.6,Red,False,False,높음
양천구,신정동,신트리1,0.054249938551390466,63,202603,0.16383872304343677,0.06230793741109976,1355.4773991075233,69500.0,37.513820615210385,126.85435786609955,0.7236084816469147,신정네거리,48,-0.3610186708928893,0.42332660830398905,42.3,Red,False,False,높음
금천구,독산동,금천롯데캐슬골드파크1차,-0.15932768916758244,63,202603,-0.3731465223679119,-0.17504966219701842,1432.5366022763237,111400.0,37.459721324419284,126.89404103977326,0.3940319490375285,금천구청,47,-0.2888691235310197,0.11381946133400125,11.4,Gray,False,False,높음
서대문구,남가좌동,DMC센트럴아이파크,-0.09042946202319935,63,202603,-0.02479971900169507,-0.08560374562455933,1574.090874465926,124500.0,37.57884136935931,126.9208104802132,1.1365465204887095,증산,46,-0.3899902502983841,0.3043865046738248,30.4,Red,False,False,높음
구로구,신도림동,대림1,0.12011810404710249,63,202603,0.07568493397905163,0.11685095918915758,1542.9913913496225,102500.0,37.50584552747279,126.88059069115477,0.3169738251379213,구로,38,-0.10646263634833109,0.22331359553748867,22.3,Gray,False,False,높음
구로구,개봉동,현대홈타운,-0.24566085793076264,63,202603,-0.3518348128307494,-0.2534677663792911,1026.9391025767497,77500.0,37.49161777697712,126.86162547026112,0.4230275376999174,개봉,45,-0.25578817128370324,0.0023204049044121544,0.2,Gray,False,False,높음
영등포구,신길동,힐스테이트클래시안,0.11770124323128066,63,202601,0.05435994199740521,0.11304379461114276,2265.584069020248,151000.0,37.50419156499485,126.91164945806608,0.48230459097348805,신풍,32,-0.019881686431555634,0.1329254810426984,13.3,Gray,False,False,높음
중구,신당동,삼성,0.19127674092887825,63,202603,0.1805329860512685,0.19048675895258343,1599.6354435982014,124000.0,37.55813917046209,127.01788995629171,0.45070778641947806,청구,23,0.15517737158211808,0.03530938737046535,3.5,Gray,False,False,높음
중랑구,신내동,신내9진흥,-0.24779404881406758,62,202603,-0.3905996466254493,-0.2584511829790961,922.0607318623724,38925.0,37.6119873028327,127.09472527275408,0.6659935555303725,봉화산,37,-0.1439873801978776,-0.11446380278121848,-11.4,Gray,False,False,높음
동작구,상도동,포스코더샵,0.2770793205017415,62,202603,0.13802487378216974,0.26670212298535556,1852.1995787348892,155500.0,37.502457934616935,126.94204985010734,0.3777105389700958,장승배기,28,0.07255713817037868,0.19414498481497688,19.4,Gray,False,False,높음
노원구,공릉동,태릉해링턴플레이스,-0.3576169920757126,62,202603,-0.29973352934934877,-0.3532973306782228,1411.6608468342413,99000.0,37.62602328995329,127.083452440108,0.6873225145125306,화랑대,28,0.022517849981591564,-0.37581518065981434,-37.6,Blue,False,False,높음
도봉구,도봉동,서원,-0.5644025369033884,62,202603,-0.586324887656192,-0.5660385332282245,711.9742312579793,35000.0,37.68674949759447,127.03494142691143,1.0256750249491557,도봉산,43,-0.31542046962413084,-0.25061806360409367,-25.1,Gray,False,False,높음
강서구,염창동,동아,-0.010167572613488147,62,202603,-0.03938837206426923,-0.012348229288919571,1269.582690462322,83625.0,37.55469784121982,126.87286234897358,0.7796844289049437,등촌,36,-0.14347842565825564,0.13113019636933607,13.1,Gray,False,False,높음
양천구,신정동,목동신시가지14,0.6446302708253877,62,202603,0.16383872304343677,0.6087503045730033,2636.5046004331252,197000.0,37.5152221722599,126.87272574413,0.6934052553706822,양천구청,48,-0.35613724490405385,0.9648875494770571,96.5,Red,True,False,높음
양천구,신정동,목동신시가지11,0.7615837847780678,62,202602,0.16383872304343677,0.7169759443501101,2840.8055800526226,164000.0,37.5122288029016,126.858275626321,0.6570611349583658,양천구청,48,-0.35026333155786094,1.067239275907971,106.7,Red,True,False,높음
강서구,등촌동,주공3,0.1866408963620626,62,202603,-0.06796501332819505,0.1676404553404016,1542.8221230284005,84225.0,37.561643003835755,126.84110960908757,0.443986158620089,발산,34,-0.05145588668268031,0.2190963420230819,21.9,Gray,False,False,높음
동작구,상도동,힐스테이트 상도 프레스티지,0.21194639528686776,61,202603,0.13802487378216974,0.20634628002136032,1817.2941500519476,165000.0,37.49683626864336,126.94925543680915,0.38951757036474044,숭실대입구,28,0.07064889335660629,0.13569738666475403,13.6,Gray,False,False,높음
마포구,아현동,공덕자이,0.5348620575037931,61,202602,0.4342512362674434,0.5272400255919484,2759.7044110089714,213000.0,37.553464139564994,126.9581496018769,0.47256562348593695,아현,37,-0.11272568233113578,0.6399657079230842,64.0,Red,True,False,높음
강동구,명일동,삼익가든,0.12839154445786397,61,202603,0.19900656495347335,0.13374116722268287,1658.237174147645,135000.0,37.5467947805473,127.147624327885,0.44139987147826293,굽은다리,23,0.15668171080337778,-0.022940543580694917,-2.3,Gray,False,False,높음
강동구,명일동,고덕주공9,0.23247717368662105,61,202602,0.19900656495347335,0.22994152150986744,1803.5518045726965,154000.0,37.54791250355194,127.15080524896487,0.7109955737657092,명일,23,0.11310982693943783,0.1168316945704296,11.7,Gray,False,False,높음
양천구,목동,목동신시가지7,1.0048409462847558,61,202603,0.36295510837289174,0.9562132312914328,3735.3312217499533,239000.0,37.52773338214835,126.86690650618742,0.2684282956302684,목동,39,-0.11750033942942384,1.0737135707208565,107.4,Red,True,False,높음
노원구,월계동,미성,0.18362454186722763,61,202603,-0.2535145399746606,0.15050794475799364,1624.3688463600784,69900.0,37.624465200858225,127.0653217049646,0.3001118718692401,광운대 경춘선,30,0.047331384174304714,0.10317656058368893,10.3,Gray,False,False,높음
서대문구,남가좌동,DMC래미안클라시스,-0.025790359586663068,61,202603,-0.02479971900169507,-0.025715311057498826,1271.3827135259219,93500.0,37.577934745775956,126.91656163623432,0.8974320626131396,증산,46,-0.3513447255354012,0.3256294144779024,32.6,Red,False,False,높음
성동구,하왕십리동,왕십리자이,0.21800280732445187,61,202603,0.21652617315376482,0.21789094109939983,2199.0459798710403,142000.0,37.56074812779818,127.0247131533248,0.5661615999085837,행당,21,0.17428500118642165,0.043605939912978176,4.4,Gray,False,False,높음
성북구,종암동,래미안세레니티,-0.051218634616746264,60,202603,-0.12011229559905745,-0.05651814700000097,1339.0194424160943,99250.0,37.59924519769332,127.03105031607741,0.7009859552930301,길음,33,-0.07410842807805351,0.017590281078052543,1.8,Gray,False,False,높음
동작구,사당동,삼성래미안,0.11864922982624027,60,202603,0.1227145604811726,0.11896194756892738,1431.327106192189,131000.0,37.48932003259509,126.97033403196725,0.5058869710272086,남성,37,-0.11811105707168068,0.23707300464060804,23.7,Gray,False,False,높음
구로구,신도림동,동아1,0.07173525281937981,60,202603,0.07568493397905163,0.07203907444704688,1502.9532661081237,123700.0,37.5107269945252,126.882211637868,0.821267304861687,구로,38,-0.18796622392569595,0.26000529837274283,26.0,Gray,False,False,높음
마포구,염리동,마포프레스티지자이,0.46993160199410455,60,202602,0.3862972832428181,0.4634981928593902,3260.6126545131974,237750.0,37.55279145748242,126.94775537481384,0.46238105651019057,이대,34,-0.05442885823881427,0.5179270510982045,51.8,Red,False,False,높음
동작구,흑석동,흑석한강푸르지오,0.3978476847049154,60,202601,0.4200870335940128,0.3995584038502305,2149.0157856891824,198250.0,37.5032122257823,126.96544285543273,1.1570537288989764,동작,21,0.07878539565845744,0.32077300819177307,32.1,Red,False,False,높음
양천구,신정동,목동신시가지8,0.8033408129073372,60,202603,0.16383872304343677,0.7541483444562679,3169.4281538523874,187000.0,37.52184166143816,126.86764548137124,0.5466825522293666,목동,48,-0.33242401606830463,1.0865723605245725,108.7,Red,True,False,높음
동작구,사당동,사당자이,-0.0001613976771474827,60,202602,0.1227145604811726,0.009290599104261754,1326.2780212749697,99000.0,37.48869789536163,126.96244633510504,0.8638152923994707,남성,37,-0.17595920197207282,0.18524980107633457,18.5,Gray,False,False,높음
노원구,상계동,상계주공12(고층),-0.26895257577016896,60,202603,-0.33837159335803557,-0.27429250020000484,1017.9146657859452,50000.0,37.66727,127.07242,0.6705814960057204,불암산,42,-0.23914688174013743,-0.03514561845986741,-3.5,Gray,False,False,높음
은평구,응암동,백련산해모로,-0.3595215542551889,60,202603,-0.3107939037815979,-0.355773273449528,1301.3935674383142,85500.0,37.59624924857225,126.92186663701874,0.6106784241604503,응암,46,-0.3049997870730621,-0.05077348637646595,-5.1,Gray,False,False,높음
영등포구,양평동5가,양평한신,0.22938696014919413,59,202603,0.2018833816760926,0.22723824308098306,1643.7579385497736,107500.0,37.540116312667244,126.89210452836102,0.24317463835607714,선유도,31,0.03764994289281132,0.18958830018817174,19.0,Gray,False,False,높음
동대문구,답십리동,힐스테이트청계,0.05813577099581055,59,202602,-0.06863442536384452,0.048231849405212496,1985.8646149795493,132000.0,37.57152873927553,127.04760981436473,0.6684735429919534,답십리,24,0.10109860987032104,-0.05286676046510855,-5.3,Gray,False,False,높음
마포구,성산동,성산시영(대우),0.41521238204171607,59,202601,0.17481715245162302,0.39643150472999006,2183.096921508112,105300.0,37.56923699261103,126.9019104290618,0.2517908731710905,월드컵경기장,39,-0.11481140992114236,0.5112429146511324,51.1,Red,False,False,높음
노원구,월계동,월계센트럴아이파크,-0.3791716968996803,59,202603,-0.2535145399746606,-0.3693547315149131,1316.4249331542846,102000.0,37.63008887123446,127.05719832521825,0.383474958857651,월계,30,0.033858295716367226,-0.40321302723128033,-40.3,Blue,False,False,높음
서대문구,홍제동,홍제원현대(459-0),-0.08288788349339776,59,202603,-0.19733448483129434,-0.09182902422292094,1181.7570136932857,95000.0,37.5871,126.94676,0.29682180626407073,홍제,47,-0.27315808283050413,0.1813290586075832,18.1,Gray,False,False,높음
송파구,거여동,거여1단지,0.40246331732285995,59,202603,0.14675271354528915,0.3824859264027372,1797.8888300622377,81500.0,37.490915686263364,127.14456639797557,0.27746483630435625,거여,27,0.10764238441786533,0.2748435419848719,27.5,Gray,False,False,높음
금천구,가산동,두산,-0.353852095044904,59,202603,-0.40138640083542615,-0.35756571268478854,912.5461863784634,66000.0,37.47487022512437,126.89227753021403,1.019628465021095,독산,48,-0.4088612300566592,0.05129551737187066,5.1,Gray,False,False,높음
송파구,잠실동,레이크팰리스,0.8649075295703001,59,202603,0.8378705739519166,0.8627952674126139,3366.132947136557,309500.0,37.50926684745007,127.09427862597954,0.6912846364176771,잠실,9,0.38066590030216685,0.48212936711044707,48.2,Red,False,False,높음
서대문구,홍제동,홍제센트럴IPARK,-0.15375465115242962,59,202603,-0.19733448483129434,-0.15715932565859092,1594.6804149462191,127000.0,37.58492831963706,126.94609579175498,0.46265770582741883,홍제,47,-0.29996037416874666,0.14280104851015574,14.3,Gray,False,False,높음
강남구,개포동,성원대치2단지아파트,1.1472726128016908,58,202603,0.8305704439590634,1.122137520036403,3863.3496051316934,154500.0,37.49464087709865,127.07538467223519,0.3799736369016425,대청,12,0.374328982718354,0.747808537318049,74.8,Red,True,False,높음
동작구,신대방동,우성1차,-0.06988652196177235,58,202603,-0.0628250432400909,-0.06932608714259128,1283.7325896851355,126000.0,37.49226761995813,126.9116092277599,0.5400313834598075,신대방,44,-0.2558146572084239,0.1864885700658326,18.6,Gray,False,False,높음
중구,신당동,래미안하이베르,0.21191756878613327,58,202603,0.1805329860512685,0.20942672888654085,1801.9969133303873,135000.0,37.56136577190546,127.02240104277753,0.5438673552418679,신당,23,0.1401209820362046,0.06930574685033625,6.9,Gray,False,False,높음
성동구,마장동,현대,0.023203640371251482,58,202602,0.08111565540168537,0.027799832040333535,1416.143468318315,105500.0,37.56944936052056,127.04258265353872,0.9215168602198238,답십리,19,0.1546199133807863,-0.12682008134045275,-12.7,Gray,False,False,높음
성북구,돈암동,돈암동삼성,-0.2863507965864759,58,202603,-0.2595701802430918,-0.28422535084493744,957.3237744940487,79750.0,37.5991827739008,127.02447560081,0.47117705371054913,길음,38,-0.13138486288904694,-0.1528404879558905,-15.3,Gray,False,False,높음
중구,만리동2가,서울역센트럴자이,0.3771916501510629,58,202602,0.34575450126315893,0.37469663833456257,2575.3324192692494,180000.0,37.553819454427,126.964645412301,0.45324765580150683,서울 공항철도,36,-0.09071992451784416,0.46541656285240673,46.5,Red,False,False,높음
도봉구,창동,주공19단지(창동리버타운),-0.07544881436628019,58,202603,-0.26856099041075626,-0.09077517754441321,1183.7988821032225,81500.0,37.6534371,127.0488204,0.038741578802191284,창동,34,0.014039481450043856,-0.10481465899445706,-10.5,Gray,False,False,높음
관악구,봉천동,e편한세상서울대입구1단지,-0.07914608677938492,58,202603,-0.11290084667273516,-0.08182503597726988,1633.2960748138191,131850.0,37.477482634550306,126.94334667013433,0.5738622234062197,봉천,36,-0.11021357329407167,0.028388537316801785,2.8,Gray,False,False,높음
은평구,녹번동,힐스테이트녹번,-0.11051830127089271,58,202603,-0.21842435661441048,-0.11908227391720363,1654.3567754576854,111500.0,37.60208270344136,126.93607265162775,0.14350517531083148,녹번,53,-0.361680749493418,0.24259847557621436,24.3,Gray,False,False,높음
노원구,상계동,은빛1단지,-0.3901638760847621,58,202603,-0.33837159335803557,-0.3860533774556568,847.0735557093759,43500.0,37.6810968943773,127.05375719325038,0.3840664565553448,수락산,42,-0.19284050549496523,-0.1932128719606916,-19.3,Gray,False,False,높음
노원구,상계동,포레나노원,-0.28899323573066626,57,202602,-0.33837159335803557,-0.2929753613457767,1451.5208185653069,94600.0,37.6639767814915,127.06230072359187,0.4262058578577552,마들,42,-0.19965104840817127,-0.0933243129376054,-9.3,Gray,False,False,높음
광진구,구의동,현대프라임,0.4542999104848492,57,202603,0.15799051936068048,0.43040399184580336,2229.2722738376065,170000.0,37.537397024523806,127.09762242014037,0.3588351096506686,강변,15,0.3210945769521626,0.10930941489364077,10.9,Gray,False,False,높음
성동구,옥수동,옥수파크힐스101동~116동,0.6406912706357787,57,202601,0.5027766989794326,0.629569127760267,3112.3217433640925,235000.0,37.54176,127.01648,0.08339603539903007,옥수,22,0.23342566065328307,0.3961434671069839,39.6,Red,False,False,높음
도봉구,창동,창동주공4단지,-0.322164639520275,57,202603,-0.26856099041075626,-0.31784176459208807,899.261049279904,36900.0,37.64472964691871,127.04757151459634,0.33566882962414935,녹천,34,-0.03394970969462441,-0.28389205489746366,-28.4,Gray,False,False,높음
종로구,무악동,인왕산아이파크,0.15620741918350114,56,202603,0.14852703160546746,0.15557787921808852,1550.229655759768,139000.0,37.57700150932393,126.95744474384661,1.4379139223642041,경복궁,39,-0.3065118536199112,0.4620897328379997,46.2,Red,False,False,높음
성동구,하왕십리동,왕십리풍림아이원,0.2686166321667023,56,202603,0.21652617315376482,0.26434692241154345,1737.958556173679,124500.0,37.5586154697619,127.02470452648247,0.4460281494456976,행당,21,0.19370089211988406,0.07064603029165939,7.1,Gray,False,False,높음
서대문구,북아현동,힐스테이트신촌,0.06017893351040401,56,202603,0.2170670358756406,0.0730386140321447,2296.925924970671,157000.0,37.562067722091165,126.95101876524527,0.6877260364955357,아현,37,-0.14749976978218837,0.22053838381433308,22.1,Gray,False,False,높음
노원구,상계동,노원롯데캐슬시그니처,-0.4525351619508082,56,202603,-0.33837159335803557,-0.44317749239402354,1371.488141971901,91400.0,37.66478301276607,127.07772685359019,0.5896353020968456,상계,42,-0.22606440998595145,-0.2171130824080721,-21.7,Gray,False,False,높음
중구,신당동,현대,-0.10391777988372461,56,202603,0.1805329860512685,-0.08060214333167598,1125.3065543454436,97500.0,37.55997114911229,127.02175776171069,0.6651165200823548,신당,23,0.12052477006322393,-0.2011269133948999,-20.1,Gray,False,False,높음
구로구,구로동,삼성래미안,-0.11834936836738677,56,202603,-0.2553039333509355,-0.12957515238243175,1153.3010668430375,85000.0,37.48773177713954,126.89189949864326,0.42830321639828883,남구로,43,-0.21887362245659658,0.08929847007416483,8.9,Gray,False,False,높음
성동구,상왕십리동,텐즈힐(2단지),0.26206516095213095,56,202603,0.26206516095213095,0.26206516095213095,2072.5044395731074,179000.0,37.57046537873107,127.02467334916217,0.6190486483771847,신설동,22,0.1468538301453347,0.11521133080679624,11.5,Gray,False,False,높음
용산구,도원동,삼성래미안,0.4148389752300502,56,202602,0.4148389752300502,0.4148389752300502,2011.2088330406702,158500.0,37.53829748535028,126.9553158164153,0.5479433153949015,효창공원앞,31,-0.011606574509471557,0.42644554973952176,42.6,Red,False,False,높음
성동구,옥수동,극동,0.19891147282390034,56,202603,0.5027766989794326,0.2238184585743538,1875.7078234540163,180000.0,37.543277993087,127.01154746373398,0.549469339997667,옥수,22,0.15809919317717247,0.06571926539718134,6.6,Gray,False,False,높음
동대문구,전농동,전농우성,-0.32335062482469856,56,202603,-0.030261526060465786,-0.2993269282046795,949.2745821617309,70250.0,37.577272417963314,127.06495781882036,1.5008399855715329,회기 경의중앙선,26,-0.0711951194043765,-0.22813180880030298,-22.8,Gray,False,False,높음
강동구,명일동,명일지에스아파트,0.03401954737579723,56,202602,0.19900656495347335,0.04754307340675429,1321.81370384331,97000.0,37.54907606137452,127.14621314991561,0.32129620171804046,명일,23,0.17609278859884558,-0.1285497151920913,-12.9,Gray,False,False,높음
노원구,공릉동,시영3차(라이프)아파트,-0.21396464488417125,55,202603,-0.29973352934934877,-0.22111205192293604,940.9150580880071,34000.0,37.6302152,127.0872902,1.1997085695586942,화랑대,28,-0.06029365441015844,-0.1608183975127776,-16.1,Gray,False,False,높음
강서구,방화동,방화그린,-0.13461411588931127,55,202603,-0.22674360477215127,-0.1422915732962146,1050.3833607706847,42500.0,37.57197597229787,126.81192326744709,0.4545626543868381,개화산,47,-0.29865205716573473,0.15636048386952012,15.6,Gray,False,False,높음
강서구,마곡동,마곡엠밸리9단지,2.1970801738210612e-05,55,202602,0.049704657161385495,0.004162194665042151,1999.8643841149349,131000.0,37.561997293959756,126.8187314187724,0.5614009251419094,마곡,43,-0.24038478846824995,0.2445469831332921,24.5,Gray,False,False,높음
양천구,목동,롯데캐슬위너,0.08962671443424794,55,202603,0.36295510837289174,0.11240408059580158,1462.2332076638231,130000.0,37.54689171628831,126.86724022255045,0.4513475317639811,등촌,39,-0.14706362862756128,0.2594677092233629,25.9,Gray,False,False,높음
동대문구,답십리동,래미안미드카운티,0.012166418968631893,55,202602,-0.06863442536384452,0.005433015274258859,1869.131415925319,136000.0,37.57442433193186,127.05626708717048,0.8904118000935827,답십리,24,0.06522909162003798,-0.059796076345779124,-6.0,Gray,False,False,높음
마포구,도화동,도화동현대,0.32492954264571905,55,202603,0.21040064944707562,0.3153854682124988,1680.1351884164678,142000.0,37.53942497854966,126.95386230877646,0.6073698952118569,공덕,34,-0.07786186101992232,0.3932473292324211,39.3,Red,False,False,높음
노원구,월계동,현대,-0.20892902384731724,55,202603,-0.2535145399746606,-0.21264448352459586,1087.781749200234,72500.0,37.61878497245975,127.06274552257355,0.4938116249785624,석계,30,0.016025754762028166,-0.22867023828662403,-22.9,Gray,False,False,높음
노원구,공릉동,풍림아파트A,-0.20222758125685797,55,202603,-0.29973352934934877,-0.2103530769312322,1048.0211964455953,78000.0,37.63028175860311,127.0657017745598,0.6886752072262685,월계,28,0.022299228655930592,-0.2326523055871628,-23.3,Gray,False,False,높음
서대문구,영천동,독립문삼호,0.053213114872940115,55,202602,0.053213114872940115,0.053213114872940115,1295.9712764312605,110000.0,37.570309277386414,126.95844807095182,1.2879912461972525,충정로,35,-0.2067470459588665,0.2599601608318066,26.0,Gray,False,False,높음
구로구,온수동,온수힐스테이트,-0.33927495461801654,55,202603,-0.3757804443801342,-0.3423170787648597,988.8675545607961,75700.0,37.49673142073229,126.8210277186938,0.5413315220485236,온수,49,-0.35044278632613657,0.008125707561276896,0.8,Gray,False,False,높음
마포구,아현동,마포래미안푸르지오4단지,0.6212856058907289,55,202510,0.4342512362674434,0.6056994084221219,2996.7941253163444,219000.0,37.5533576241882,126.952844242934,0.5360933786340099,아현,37,-0.12299299722511492,0.7286924056472368,72.9,Red,True,False,높음
동대문구,청량리동,미주,-0.4502816377467537,55,202602,-0.34048354219056665,-0.4411317964504048,1127.5116776959335,130000.0,37.5834583679649,127.046441099047,0.40931391066245143,청량리,28,0.06744942158066825,-0.508581218031073,-50.9,Blue,False,False,높음
마포구,도화동,한화오벨리스크,0.17061050837840966,55,202603,0.21040064944707562,0.17392635346746516,1509.4550287450536,92000.0,37.54004128976121,126.94547072072396,0.06425914677403659,마포,34,0.009915348540187718,0.16401100492727744,16.4,Gray,False,False,높음
동대문구,제기동,한신아파트,-0.12391103816091677,55,202603,-0.2038829200759024,-0.13057536165383224,1202.0180237945617,93000.0,37.58892463122479,127.03915286827284,0.9212111473836418,안암,36,-0.16635188279750734,0.035776521143675105,3.6,Gray,False,False,높음
동대문구,장안동,장안힐스테이트,-0.005407079980602459,54,202603,-0.27001039340385397,-0.027831089592742417,1387.2877066845804,103750.0,37.575965207219284,127.07534884553698,1.0341502788271166,용마산,22,0.0797653718344814,-0.10759646142722382,-10.8,Gray,False,False,높음
동대문구,전농동,청량리역롯데캐슬 SKY-L65,-0.1357174493593145,54,202603,-0.030261526060465786,-0.1267805067068697,2154.389191573293,182500.0,37.5787422414806,127.04495513706125,0.14537087218020714,청량리,26,0.1478749261814155,-0.2746554328882852,-27.5,Gray,False,False,높음
동대문구,청량리동,한신,-0.24582538009894908,54,202603,-0.34048354219056665,-0.25384725824230653,1010.75851046806,86750.0,37.5883476091168,127.049750252449,0.7236256814228407,회기 경의중앙선,28,0.01665055551403094,-0.27049781375633747,-27.0,Gray,False,False,높음
영등포구,양평동3가,양평현대6차,0.17189322139526514,54,202602,0.04018969754797692,0.16073190581498648,1540.649887652998,112000.0,37.53187088457966,126.89367770723769,0.6998253409948462,선유도,34,-0.09280445065345444,0.2535363564684409,25.4,Gray,False,False,높음
광진구,광장동,현대파크빌,0.5640495311834798,54,202602,0.4071930681877723,0.5507566105906232,2304.412127906642,174000.0,37.54414401948922,127.10152831767476,0.21766373274850395,광나루,15,0.3439106040145496,0.2068460065760736,20.7,Gray,False,False,높음
성북구,종암동,종암에스케이,-0.20696110271251686,54,202603,-0.12011229559905745,-0.19960103431307116,1081.0639285033155,79600.0,37.6011822462255,127.037533127344,0.3528574367932429,월곡,33,-0.0178441210097412,-0.18175691330332996,-18.2,Gray,False,False,높음
종로구,창신동,창신쌍용2,-0.22459453151472525,54,202603,-0.16601634181276484,-0.21963027815015232,976.9467929736034,65000.0,37.58032424937554,127.01178752964915,0.8872938468794601,동묘앞,33,-0.10421938958916899,-0.11541088856098333,-11.5,Gray,False,False,높음
동대문구,용두동,래미안엘리니티,0.002533552419238669,54,202602,-0.056876971091052546,-0.0025012377087521116,2042.2059005299432,141250.0,37.5800222747363,127.028470187838,0.5675942172971093,신설동,26,0.07963546093036078,-0.0821366986391129,-8.2,Gray,False,False,높음
양천구,신정동,목동힐스테이트,0.3017627731748757,54,202512,0.16383872304343677,0.2900742943501775,2261.3508205030735,177500.0,37.52030174257242,126.85600248007994,0.27467599631109674,신정네거리,48,-0.28846249159242643,0.5785367859426039,57.9,Red,False,False,높음
동대문구,답십리동,답십리파크자이,0.01188657360016042,54,202602,-0.06863442536384452,0.005062760128634578,1886.0460756706086,117250.0,37.56777513651158,127.05963520656783,0.6297955937580675,답십리,24,0.10734971512836178,-0.1022869549997272,-10.2,Gray,False,False,높음
마포구,신수동,신촌숲아이파크,0.38210156153225044,54,202602,0.2574114570864509,0.37153460352836915,2828.7851786480246,209250.0,37.55095051621004,126.93468026572413,0.15089442262030114,서강대 경의중앙선,38,-0.07962099021936297,0.4511555937477321,45.1,Red,False,False,높음
동작구,상도동,e편한세상상도노빌리티,0.26143333210081127,54,202601,0.13802487378216974,0.2509749881755027,2343.0760789824503,185000.0,37.505118643901525,126.94794129534088,0.24997674934302028,상도,28,0.09320139102719083,0.15777359714831185,15.8,Gray,False,False,높음
강동구,강일동,강동리버스트4단지,-0.2236595267929665,53,202603,-0.09213056986101283,-0.21232082360917737,1553.4521212331708,79000.0,37.57289837550242,127.17289445571083,1.7378842199209465,강일,23,-0.05285525504012756,-0.1594655685690498,-15.9,Gray,False,False,높음
강서구,방화동,마곡중앙하이츠아파트,-0.1815654240026044,53,202603,-0.22674360477215127,-0.1854600947585998,1044.4591512692884,53400.0,37.57088920087895,126.80679480031297,0.18325171138026658,개화산,47,-0.25480295720087665,0.06934286244227683,6.9,Gray,False,False,높음
영등포구,당산동,강변래미안,0.3757660625395052,53,202603,0.2812988343220152,0.3676223359690319,1802.7233509070425,153000.0,37.5292640723793,126.908479301149,0.7504658148423782,당산,27,0.031196270739040854,0.336426065229991,33.6,Red,False,False,높음
노원구,상계동,벽산,-0.507505473291119,53,202603,-0.33837159335803557,-0.4929249664003359,792.0096414539759,38300.0,37.66167755101459,127.07315737225237,0.10892704579922916,상계,42,-0.14837265103682473,-0.34455231536351116,-34.5,Blue,False,False,높음
노원구,하계동,건영,-0.3348907654525123,53,202603,-0.23872711297612742,-0.32660079541144466,968.7919065273182,51500.0,37.63544431077244,127.06423915535755,0.34976600288916104,하계,41,-0.1684132879415846,-0.15818750746986004,-15.8,Gray,False,False,높음
동대문구,휘경동,휘경SK뷰,-0.13995783211321222,53,202602,-0.24273613895003332,-0.14881803097845542,1666.3053115958771,119500.0,37.59352647073201,127.06632505454822,0.3835917903524002,외대앞,26,0.10937381473011754,-0.25819184570857295,-25.8,Gray,False,False,높음
은평구,수색동,e편한세상 수색 에코포레,-0.297580544507153,53,202603,-0.22993362483009094,-0.2917489135005097,936.6288902057565,73500.0,37.5868453324905,126.90002144817922,0.7683096066208985,수색 경의중앙선,44,-0.2927088366921774,0.0009599231916677109,0.1,Gray,False,False,높음
성동구,금호동2가,래미안하이리버,0.41771530028287274,53,202603,0.4407104116010201,0.4196976374654717,2315.407984868992,169000.0,37.55126336183034,127.02454479741459,0.8073779034828339,행당,18,0.191950578408129,0.22774705905734266,22.8,Gray,False,False,높음
양천구,신정동,목동신시가지12,0.7628814557994672,52,202603,0.16383872304343677,0.7103338476629733,2906.040792129883,183000.0,37.513117496388006,126.86157108265175,0.3750075293834639,양천구청,48,-0.3046780093838011,1.0150118570467743,101.5,Red,True,False,높음
노원구,상계동,은빛2단지,-0.3604977230425491,52,202603,-0.33837159335803557,-0.35855683447373216,875.6910229595386,44800.0,37.67996177538103,127.05350697724647,0.28256658147800456,수락산,42,-0.17643616102081294,-0.1821206734529192,-18.2,Gray,False,False,높음
강남구,자곡동,강남자곡 힐스테이트,0.18507528481822913,52,202603,0.31303086717506906,0.19629945870917997,1897.0488094062619,124500.0,37.47136754830765,127.08875842678428,1.4616342463764898,일원,18,0.08621008941689978,0.11008936929228019,11.0,Gray,False,False,높음
서대문구,홍제동,홍제한양,-0.02251756753721321,52,202603,-0.19733448483129434,-0.037852384843711555,1131.3150962904506,74900.0,37.583167340988425,126.94711939561418,0.6780330639289834,홍제,47,-0.33476920090720175,0.2969168160634902,29.7,Red,False,False,높음
구로구,신도림동,동아3,0.16842986496685622,52,202603,0.07568493397905163,0.1602943447047681,1622.4247138354233,133250.0,37.521816639434206,126.88692159514063,0.42076527414081344,양평,38,-0.12323734352523641,0.2835316882300045,28.4,Gray,False,False,높음
송파구,가락동,우성,0.4601090326643585,52,202602,0.34098738251185506,0.44965976510712136,2332.559116838509,135975.0,37.496624453746946,127.1177978725618,0.3941242026335085,가락시장,16,0.29650757614881484,0.1531521889583065,15.3,Gray,False,False,높음
성북구,장위동,래미안포레카운티,-0.347504661205788,52,202603,-0.2882447822080515,-0.34230642620598656,1404.759518552476,107000.0,37.61801141391467,127.05274216603736,0.8917708151657602,돌곶이,37,-0.18047735556648647,-0.16182907063950008,-16.2,Gray,False,False,높음
동작구,신대방동,롯데낙천대,0.20194780646856994,52,202603,-0.0628250432400909,0.17872211789763479,1592.622260610748,96900.0,37.494330640506014,126.91366034815324,0.7304659217828503,신풍,44,-0.2865925647087728,0.4653146826064076,46.5,Red,False,False,높음
동대문구,휘경동,주공2,-0.04549289341703444,52,202603,-0.24273613895003332,-0.06279493249887645,1221.1276488878025,56650.0,37.58352387615069,127.06907751347816,1.1699056445442988,회기 경춘선,26,-0.01770972423122208,-0.04508520826765437,-4.5,Gray,False,False,높음
영등포구,신길동,우성2,0.2390047681874187,52,202602,0.05435994199740521,0.22280785360934732,1754.2568776186747,124000.0,37.49827675666026,126.91204318458907,0.28794992397463953,신풍,32,0.011529789741975605,0.21127806386737172,21.1,Gray,False,False,높음
강북구,번동,주공1단지,-0.21619373600456804,52,202603,-0.4393382644459772,-0.2357678174467969,1021.4647581156042,52600.0,37.6249505081745,127.04708766769457,1.2924181863898019,광운대,44,-0.37741492798378373,0.14164711053698684,14.2,Gray,False,False,높음
성동구,금호동4가,대우,0.4475987833918463,52,202601,0.4591414831847896,0.4486113009175431,2030.896731484395,158000.0,37.546119503704226,127.02007671504961,0.44376252709501735,금호,20,0.21295066085699316,0.23566064006054993,23.6,Gray,False,False,높음
성북구,정릉동,길음뉴타운경남아너스빌,-0.23823342411600745,51,202603,-0.3797119030473846,-0.25086543116345184,1017.122674814797,68000.0,37.604208913614386,127.0169870784423,0.3516630259856384,정릉 우이신설선,42,-0.1876034839044981,-0.06326194725895373,-6.3,Gray,False,False,높음
서대문구,홍제동,문화촌현대,-0.2465453681240355,51,202603,-0.19733448483129434,-0.2421515392586122,1009.8007946601439,69000.0,37.59227561479792,126.94949529168096,0.6090221160780565,홍제,47,-0.323615695938139,0.0814641566795268,8.1,Gray,False,False,높음
서대문구,북아현동,신촌푸르지오,0.2734013153912719,51,202603,0.2170670358756406,0.26837146900594766,2107.302192502185,165000.0,37.56039783307326,126.95238481931821,0.4696845090531512,아현,37,-0.112260038471093,0.38063150747704066,38.1,Red,False,False,높음
도봉구,창동,쌍용,-0.23549149807249423,51,202603,-0.26856099041075626,-0.2384441313169819,1060.486911153841,86000.0,37.659746135155196,127.04804348725017,0.7095721407465811,창동,34,-0.09437972215527857,-0.14406440916170332,-14.4,Gray,False,False,높음
구로구,구로동,주공1,-0.22931779188661866,51,202602,-0.2553039333509355,-0.2316379830887898,1081.3215607531465,84000.0,37.4945849,126.8845477,0.926964695706978,대림,43,-0.2994669697522164,0.06782898666342663,6.8,Gray,False,False,높음
양천구,신정동,목동현대3차,0.3319440894208081,51,202603,0.16383872304343677,0.31693468170854283,1690.5239198272318,150000.0,37.5203878918188,126.87723725811655,0.491449540530176,오목교,48,-0.32349729227117674,0.6404319739797195,64.0,Red,True,False,높음
은평구,응암동,백련산파크자이,-0.39446170640028366,51,202603,-0.3107939037815979,-0.3869913668807582,1315.0526405185187,88000.0,37.592433698998406,126.92209255569122,0.7701126906972268,새절,46,-0.33076745060230495,-0.056223916278453245,-5.6,Gray,False,False,높음
동작구,상도동,상도역롯데캐슬파크엘,0.14709974726619376,51,202603,0.13802487378216974,0.1462894907051202,2259.228868264057,158000.0,37.500549981491574,126.94667672352884,0.2803143990449508,상도,28,0.08829823961082284,0.05799125109429737,5.8,Gray,False,False,높음
성동구,응봉동,대림강변타운,0.47584209242680087,51,202603,0.3055107918402001,0.4606339405887115,2141.15986499737,155000.0,37.553430107559,127.0357391828018,0.7019028370081157,행당,14,0.28453179200180684,0.17610214858690465,17.6,Gray,False,False,높음
구로구,구로동,신도림롯데아파트,-0.1015559459643871,51,202603,-0.2553039333509355,-0.11528344483818607,1195.401461098887,95000.0,37.503499308748616,126.88420893889264,0.1685966996660159,구로,43,-0.17690002239637825,0.06161657755819218,6.2,Gray,False,False,높음
성동구,하왕십리동,벽산,0.05778533730245373,51,202602,0.21652617315376482,0.07195862621774937,1324.0869094961013,128000.0,37.5641644558895,127.005632162458,0.34080950026253104,동대문사문화공원,21,0.2107062624712313,-0.13874763625348194,-13.9,Gray,False,False,높음
동대문구,답십리동,두산,-0.17459512693966467,50,202603,-0.06863442536384452,-0.16496233588731737,1090.6651354397143,82500.0,37.56931015249881,127.06018768670344,0.7205807814894616,답십리,24,0.09267707152597715,-0.2576394074132945,-25.8,Gray,False,False,높음
송파구,잠실동,우성아파트,0.6403859109137193,50,202603,0.8378705739519166,0.6583390620990099,3017.8834231705223,305000.0,37.506877946720635,127.07314063127907,0.47853911862355936,종합운동장,9,0.41504969394297037,0.24328936815603958,24.3,Gray,False,False,높음
강서구,등촌동,부영,-0.03682851435739121,50,202603,-0.06796501332819505,-0.039659105172918825,1159.312996031746,92450.0,37.56355649410892,126.84364090076737,0.5239833634514015,양천향교,34,-0.06438498343301846,0.024725878260099636,2.5,Gray,False,False,높음
성동구,금호동2가,신금호파크자이,0.4891232194411661,50,202602,0.4407104116010201,0.48472205509206195,2810.098918301643,186500.0,37.55540086629908,127.01899726814243,0.7214286093194263,약수,18,0.20584164800493837,0.2788804070871236,27.9,Gray,False,False,높음
강남구,자곡동,래미안강남힐즈,0.42884962509297336,50,202603,0.31303086717506906,0.41832064710043665,2161.497420250495,210000.0,37.47412411798923,127.09408976051222,1.4055621627476285,일원,18,0.09527242347918741,0.32304822362124924,32.3,Red,False,False,높음
강동구,길동,길동우성,0.06902844696601561,50,202603,-0.15667686721835844,0.048509782040163416,1332.1308240097603,92000.0,37.5371898887801,127.14417481462475,0.37300457486006444,길동,24,0.1488521143053222,-0.10034233226515878,-10.0,Gray,False,False,높음
영등포구,신길동,삼성래미안,0.00206575181747489,50,202603,0.05435994199740521,0.006819769106559465,1295.3602218908063,98250.0,37.5058213977699,126.915221445825,0.7962897065821141,신풍,32,-0.07062775870283411,0.07744752780939357,7.7,Gray,False,False,높음
성북구,돈암동,이수브라운스톤돈암,-0.058210614464217054,50,202603,-0.2595701802430918,-0.07651602953502384,1233.2591558682109,85650.0,37.597871226744985,127.01779188910776,0.5483464210070143,성신여대입구,38,-0.14385692635729264,0.06734089682226879,6.7,Gray,False,False,높음
중랑구,묵동,신내,-0.2715340069052763,49,202603,-0.35271380280027487,-0.27905065467333173,939.9426197489024,47000.0,37.61586212598735,127.08447745598109,0.45019922446018606,화랑대,34,-0.05246003838438318,-0.22659061628894855,-22.7,Gray,False,False,높음
관악구,신림동,신림푸르지오,-0.21613716900654736,49,202602,-0.38315276011165805,-0.2316015755903539,1078.0922960254447,98000.0,37.4791228684825,126.91048508711464,0.9850135004216427,신대방,41,-0.2710815795816054,0.03948000399125148,3.9,Gray,False,False,높음
노원구,상계동,상계2차중앙하이츠,-0.3389209072745979,49,202603,-0.33837159335803557,-0.3388700448749162,950.1175694207715,59250.0,37.65496093751854,127.06830730561792,0.4543507122523167,노원,42,-0.20419980165847273,-0.13467024321644344,-13.5,Gray,False,False,높음
성동구,금호동4가,서울숲푸르지오,0.6006138932548614,49,202602,0.4591414831847896,0.5875145960261511,2444.9478546757946,187000.0,37.544733216499736,127.02308858683003,0.6132695106529316,옥수,20,0.1855550512866394,0.4019595447395117,40.2,Red,False,False,높음
구로구,구로동,구로두산위브,0.0666315951309558,49,202603,-0.2553039333509355,0.03682274990115106,1326.0910816459711,52000.0,37.48607243263292,126.89028274768059,0.2538582712225581,남구로,43,-0.19067994270815558,0.22750269260930664,22.8,Gray,False,False,높음
강남구,도곡동,도곡렉슬,1.0552986007031266,49,202602,0.6124222221583607,1.0142915286156484,3910.438058836778,392000.0,37.49377988299789,127.05114053767764,0.31937393574606376,한티 수인분당선,17,0.2897050658549569,0.7245864627606915,72.5,Red,True,False,높음
양천구,목동,목동청구한신아파트,0.6025597941911014,49,202603,0.36295510837289174,0.5803741751338598,2204.94946934934,195000.0,37.54146437872469,126.88192454874452,0.33055741196158545,신목동,39,-0.1275416072181479,0.7079157823520077,70.8,Red,True,False,높음
성북구,삼선동2가,삼선푸르지오,-0.16251775285027512,48,202603,-0.16791582644580702,-0.1630270050762687,1115.0379318867363,92750.0,37.58349197284173,127.01338210755104,0.626394764347464,보문,33,-0.06205304781205845,-0.10097395726421024,-10.1,Gray,False,False,높음
강남구,개포동,개포자이프레지던스,0.718265603955261,48,202603,0.8305704439590634,0.7288604001820348,4472.834161813252,367500.0,37.48518724018239,127.07146417569656,0.6445240272802798,개포동 수인분당선,12,0.3315725189174297,0.39728788126460507,39.7,Red,False,False,높음
동작구,흑석동,흑석한강센트레빌Ⅱ,0.33186246233389255,48,202603,0.4200870335940128,0.3401855350942813,2031.4401554683336,178000.0,37.5064393,126.963687,1.1631940873577358,노들,21,0.07779299487692437,0.2623925402173569,26.2,Gray,False,False,높음
강북구,미아동,래미안트리베라1단지,-0.20202256392519702,48,202603,-0.33818170998307784,-0.21486776638348767,1166.9333741938372,86750.0,37.613940803823745,127.0207269361348,0.8205899185082545,삼양사거리 우이신설선,39,-0.20674034549047193,-0.008127420893015741,-0.8,Gray,False,False,높음
양천구,신정동,학마을1단지,-0.14923778483245703,48,202603,0.16383872304343677,-0.11970226522152365,1065.4429609262472,53250.0,37.508052197828064,126.84431772886545,1.5189798975843878,오류동,48,-0.48956608715316263,0.36986382193163897,37.0,Red,False,False,높음
은평구,불광동,북한산힐스테이트7차,0.007965324332285936,48,202603,-0.18670662596853313,-0.010399953997980015,1456.9534592742366,110000.0,37.61653271632597,126.92668526757278,0.5744409264112282,연신내,54,-0.4502119085024987,0.4398119545045187,44.0,Red,False,False,높음
금천구,독산동,독산주공14단지,-0.4147583735035625,48,202603,-0.3731465223679119,-0.4108327271700105,851.2164768771336,36800.0,37.46008372019975,126.88648225064904,0.7062981840749344,독산,47,-0.3393373914308273,-0.07149533573918321,-7.1,Gray,False,False,높음
양천구,신정동,목동신시가지13,0.6568905194117611,48,202603,0.16383872304343677,0.6103761989996551,2640.64793860897,216000.0,37.5151104149728,126.866174467076,0.3052376095195628,양천구청,48,-0.29340183984655455,0.9037780388462097,90.4,Red,True,False,높음
성동구,금호동1가,이편한세상금호파크힐스,0.3727327229535858,48,202601,0.3187295038370544,0.3676380796407055,2706.975938285169,195000.0,37.55460192482107,127.0227192949941,0.6729307028383014,행당,16,0.2514470490544982,0.11619103058620728,11.6,Gray,False,False,높음
중랑구,상봉동,"엘지,쌍용아파트",-0.23567625784077764,48,202603,-0.33270133189221357,-0.24482956671355463,891.7920912913878,60250.0,37.60376261909741,127.09071497738688,0.4261115436913474,망우 경춘선,32,-0.010799802301489803,-0.23402976441206483,-23.4,Gray,False,False,높음
서대문구,남가좌동,DMC파크뷰자이2단지,0.03228163143715453,48,202603,-0.02479971900169507,0.0268965983768857,1671.4261348269895,136000.0,37.572953302647306,126.91426244598621,0.4706524006030703,가좌 경의중앙선,46,-0.28236887128099086,0.30926546965787655,30.9,Red,False,False,높음
노원구,월계동,성원(사슴4),-0.2791162158524331,47,202603,-0.2535145399746606,-0.27665451624880116,941.8749182711948,46800.0,37.6298479,127.0541062,0.566098336239568,월계,30,0.004342823019249598,-0.28099733926805076,-28.1,Gray,False,False,높음
서대문구,대현동,신촌럭키,0.08422719030984205,47,202603,0.021474502122284498,0.07819327798411536,1389.6054343906521,100000.0,37.559518392768,126.94795553313459,0.3293554612990343,이대,40,-0.14623094903694822,0.22442422702106357,22.4,Gray,False,False,높음
성동구,행당동,서울숲리버뷰자이,0.4330156499507554,47,202602,0.3581541371290771,0.42581742756405555,2877.95783486043,240000.0,37.55555294967707,127.03832055267158,0.6445180228714804,왕십리,16,0.256039088101388,0.16977833946266757,17.0,Gray,False,False,높음
양천구,신월동,목동센트럴아이파크위브4단지,-0.25378921772286883,47,202603,-0.3405313796547355,-0.26212981021631754,1461.9307546948003,115800.0,37.5169702090589,126.844226810518,0.8453076574630138,신정네거리,37,-0.17296800992707617,-0.08916180028924137,-8.9,Gray,False,False,높음
마포구,대흥동,대흥동태영아파트,0.5719371021332762,47,202603,0.4859254603951057,0.5636667519661445,2270.2635969897856,179000.0,37.54473232045174,126.94257048117983,0.3243117357035052,대흥,39,-0.12653218504168207,0.6901989370078265,69.0,Red,True,False,높음
중랑구,면목동,면목한신,-0.39534042522381874,47,202603,-0.3450237621973327,-0.3905022845481951,902.8814978894092,42500.0,37.58750505698917,127.0754646406228,0.8161187158713249,중랑 경의중앙선,25,0.05835269175812263,-0.4488549763063177,-44.9,Blue,False,False,높음
구로구,신도림동,미성,-0.08995853357938675,47,202603,0.07568493397905163,-0.07403127708338307,1209.8418624892356,67000.0,37.507333355246935,126.87647145886532,0.6797714298476154,구로,38,-0.1650977516873432,0.09106647460396013,9.1,Gray,False,False,높음
영등포구,당산동4가,당산현대5차,0.4218543069597547,47,202603,0.2077173932602447,0.4012642191040326,2032.6375094179846,150000.0,37.529660629133936,126.90081170200881,0.47433825882655645,당산,30,0.01917302766443707,0.3820911914395955,38.2,Red,False,False,높음
동작구,사당동,대림(169-8),0.14530948839085076,47,202603,0.1227145604811726,0.14313689916876632,1576.7690606380145,150000.0,37.4850799,126.9704949,0.048547692227433756,남성,37,-0.04419617722305724,0.18733307639182356,18.7,Gray,False,False,높음
양천구,신월동,목동센트럴아이파크위브1단지,-0.23589012427648695,47,202602,-0.3405313796547355,-0.24595178344747237,1488.5891258519516,113500.0,37.5169253942449,126.841693126616,1.0533553506944793,신정네거리,37,-0.20659254418607098,-0.03935923926140139,-3.9,Gray,False,False,높음
양천구,신월동,롯데캐슬,-0.1752311986271178,47,202603,-0.3405313796547355,-0.19112544680285026,1328.42846254954,100000.0,37.518753151722066,126.84757139143103,0.4966955702674357,신정네거리,37,-0.11662554879742504,-0.07449989800542522,-7.4,Gray,False,False,높음
관악구,봉천동,e편한세상서울대입구2단지,-0.11207919663882475,47,202602,-0.11290084667273516,-0.11215820144977766,1620.0163846496785,121000.0,37.478053894698384,126.9415384650226,0.4915019599670144,봉천,36,-0.09690256053263546,-0.015255640917142196,-1.5,Gray,False,False,높음
서대문구,홍제동,인왕산현대,-0.11268435176583409,47,202603,-0.19733448483129434,-0.12082378763751297,1132.6688872305574,92000.0,37.5858035508961,126.95107567717,0.6944160383145377,홍제,47,-0.33741700668161345,0.21659321904410048,21.7,Gray,False,False,높음
은평구,응암동,백련산힐스테이트4차,-0.3200953457036647,46,202602,-0.3107939037815979,-0.3191834396328738,1279.6919580599879,93750.0,37.589978385382494,126.92192527666943,0.741750558672122,새절,46,-0.3261835810812175,0.007000141448343655,0.7,Gray,False,False,높음
관악구,신림동,삼성산주공(주공3단지),-0.5256930933840273,46,202603,-0.38315276011165805,-0.511718550906344,767.4085544338216,57000.0,37.4623316579349,126.926153373876,1.8330642014080734,관악산 신림선,41,-0.40814298798163917,-0.10357556292470482,-10.4,Gray,False,False,높음
성동구,응봉동,신동아,0.1150666064871828,46,202602,0.3055107918402001,0.1337376050512041,1465.9195601812335,109000.0,37.550253109685286,127.02949998343615,0.7906713632141706,행당,14,0.270185079937015,-0.1364474748858109,-13.6,Gray,False,False,높음
구로구,개봉동,개봉동현대아이파크,-0.15950071051167744,46,202603,-0.3518348128307494,-0.17835699505276295,1141.7654744629692,87100.0,37.4908707033343,126.86074033439,0.45576912057425484,개봉,45,-0.2610798448319749,0.08272284977921193,8.3,Gray,False,False,높음
구로구,구로동,구일우성,-0.429327177344441,46,202603,-0.2553039333509355,-0.41226607499213647,856.4864967823777,55000.0,37.4902831858482,126.87691565779983,0.9203973328944944,구일,43,-0.29840555680189873,-0.11386051819023774,-11.4,Gray,False,False,높음
강남구,수서동,신동아,1.0869354633588189,46,202602,0.9145140920855864,1.0700314073516393,3650.3234784097363,146750.0,37.48649718938998,127.0980084255632,0.305217430421907,수서 수인분당선,15,0.3297602317552153,0.740271175596424,74.0,Red,True,False,높음
동작구,사당동,사당우성3,0.3568598584451195,46,202603,0.1227145604811726,0.3339044370761051,1863.1611978883593,135000.0,37.489968222241146,126.9758981714037,0.6591339716244132,총신대입구,37,-0.1428787386625362,0.4767831757386413,47.7,Red,False,False,높음
양천구,신정동,목동신시가지10,0.6937834560276944,45,202602,0.16383872304343677,0.6407889827292687,2809.7265684508484,190000.0,37.5176211734141,126.858916977626,0.6052191159202334,신정네거리,48,-0.34188465781181865,0.9826736405410873,98.3,Red,True,False,높음
성동구,옥수동,옥수삼성,0.6358069547979542,45,202603,0.5027766989794326,0.6225039292161021,2445.287364665381,186000.0,37.542363208463854,127.01404009595741,0.3086784719862343,옥수,22,0.1970156582672022,0.4254882709488999,42.5,Red,False,False,높음
도봉구,창동,북한산아이파크5차,-0.23191823395524255,45,202603,-0.26856099041075626,-0.2355825096007939,1015.7814126609281,97500.0,37.657909846781195,127.0436315510589,0.6190391433383992,창동,34,-0.07974783739059566,-0.15583467221019826,-15.6,Gray,False,False,높음
은평구,수색동,DMCSK뷰아이파크포레,-0.28482735036295226,45,202603,-0.22993362483009094,-0.2793379778096661,1653.1051284871755,103000.0,37.581118722814104,126.90014118646708,0.3959591400043256,수색 경의중앙선,44,-0.23252979396098827,-0.04680818384867785,-4.7,Gray,False,False,높음
강서구,화곡동,우장산롯데캐슬,-0.23887174004725809,45,202603,-0.19304958963224267,-0.23428952500575653,1083.643708781043,125000.0,37.555186577852744,126.84804044324358,0.8937668698459185,가양,45,-0.33186875912847946,0.09757923412272293,9.8,Gray,False,False,높음
금천구,독산동,금천현대,-0.3835189341537146,45,202602,-0.3731465223679119,-0.3824816929751343,904.6670816979386,58000.0,37.46226424908729,126.89038536461202,0.4201835079076831,독산,47,-0.29309572164175823,-0.08938597133337606,-8.9,Gray,False,False,높음
용산구,이촌동,한가람,0.9438791203293869,45,202602,0.59120656748292,0.9086118650447402,3419.479889032211,253000.0,37.521534188765074,126.97246042129262,0.13666103761313433,이촌 경의중앙선,24,0.18704980465995635,0.7215620603847839,72.2,Red,True,False,높음
도봉구,창동,삼성래미안,-0.23807387507439845,45,202603,-0.26856099041075626,-0.24112258660803423,995.7886150949531,80500.0,37.649135067255855,127.0485273066093,0.471133462612623,창동,34,-0.055843416479132935,-0.1852791701289013,-18.5,Gray,False,False,높음
용산구,산천동,리버힐삼성,0.3588167889185608,44,202603,0.33078848406230643,0.35595675781077973,1852.9250569564929,150750.0,37.535001546250996,126.95059295454641,0.6559089652124046,마포,33,-0.06682311395744922,0.42277987176822895,42.3,Red,False,False,높음
중랑구,신내동,성원,-0.5158628893431408,44,202603,-0.3905996466254493,-0.5030809258005192,754.7114816000864,63500.0,37.60487670314577,127.09471625543198,0.600645766486989,망우 경춘선,37,-0.13342591259730097,-0.36965501320321825,-37.0,Blue,False,False,높음
동작구,대방동,주공2,0.29948725960585415,44,202602,0.1838802364630393,0.2876906245912812,1790.1154195619033,96500.0,37.509723445674716,126.93004273954064,0.5108169167476508,대방,32,-0.024489830169685645,0.31218045476096684,31.2,Red,False,False,높음
구로구,개봉동,두산,-0.5040675468080337,44,202603,-0.3518348128307494,-0.488533594361372,796.3871083726423,57250.0,37.49497576603202,126.85263378300493,0.5378719818548703,개봉,45,-0.2743492564222305,-0.2141843379391415,-21.4,Gray,False,False,높음
마포구,상암동,상암월드컵파크2단지,0.2687541245224109,44,202603,0.11329360945551648,0.25289080665844205,1779.2322243692893,103750.0,37.57484025247122,126.89157899800048,0.630377237660707,디지털미디어시티 공항철도,35,-0.10046389320777527,0.3533546998662173,35.3,Red,False,False,높음
성북구,정릉동,정릉우성아파트 101~105동,-0.324028511045956,44,202603,-0.3797119030473846,-0.32971048982161194,909.1982355565793,64900.0,37.6167954,126.9972998,1.0958549528094061,북한산보국문 우이신설선,42,-0.30787930407864195,-0.021831185742969994,-2.2,Gray,False,False,높음
관악구,봉천동,보라매삼성,-0.09988739531834062,44,202603,-0.11290084667273516,-0.10121529851776863,1106.5978012686937,93750.0,37.49410609524941,126.92817564601104,0.6283851093019057,신대방삼거리,36,-0.11902552701594793,0.0178102284981793,1.8,Gray,False,False,높음
노원구,중계동,주공2,-0.4456308552286832,44,202603,-0.2126795577727421,-0.4218603146719545,801.9378420321816,36000.0,37.65689318511727,127.07898449211748,0.6487831610313098,상계,36,-0.12232224700615235,-0.29953806766580215,-30.0,Blue,False,False,높음
성북구,하월곡동,꿈의숲푸르지오,-0.1596897314873952,44,202603,-0.2372317772574219,-0.16760218513739794,1224.5230144288869,78900.0,37.61077190927401,127.03899216768632,0.8324778439044542,미아사거리,36,-0.15201086340715875,-0.015591321730239194,-1.6,Gray,False,False,높음
마포구,염리동,마포자이더센트리지(102동~112동),0.26436143179452803,44,202602,0.3862972832428181,0.27680386561578213,2647.1890440797147,194750.0,37.54914,126.94915,0.5500863869085492,공덕,34,-0.06860373728154934,0.34540760289733147,34.5,Red,False,False,높음
마포구,신공덕동,신공덕1차삼성래미안1아파트,0.464566731659461,44,202602,0.3144481359855028,0.4492485076110979,2103.2619952588434,165500.0,37.54354709792864,126.95635258116548,0.44605872236285016,공덕,36,-0.08955805372303172,0.5388065613341296,53.9,Red,False,False,높음
양천구,신정동,목동신시가지9,0.6232306990542823,43,202603,0.16383872304343677,0.5753773682198192,2661.962792125916,235000.0,37.51891351748163,126.86378314634696,0.7453955763585787,양천구청,48,-0.3645398871157546,0.9399172553355738,94.0,Red,True,False,높음
도봉구,쌍문동,삼익세라믹,-0.6551054094413863,43,202603,-0.6348270509753693,-0.6529930804345095,706.9391825521503,38750.0,37.65724414099776,127.03518144906897,0.9686713212121609,쌍문,42,-0.2873239674084722,-0.36566911302603733,-36.6,Blue,False,False,높음
영등포구,신길동,래미안영등포프레비뉴,0.19380262853472133,43,202603,0.05435994199740521,0.17927734868708423,1941.018822526921,145000.0,37.50490147161546,126.9079967200798,0.553501937998635,신풍,32,-0.031388555827762676,0.2106659045148469,21.1,Gray,False,False,높음
마포구,성산동,성산시영(선경),0.4525047170828914,43,202511,0.17481715245162302,0.4235789291004676,2312.3751852090445,120000.0,37.56923699261103,126.9019104290618,0.2517908731710905,월드컵경기장,39,-0.11481140992114236,0.53839033902161,53.8,Red,False,False,높음
광진구,구의동,e편한세상광진그랜드파크,0.08382665766800299,43,202602,0.15799051936068048,0.0915520599276569,2109.8713861206825,193000.0,37.544255591275835,127.08070769118955,0.6741492145782789,어린이대공원,15,0.2701337142826253,-0.17858165435496837,-17.9,Gray,False,False,높음
영등포구,영등포동7가,경남아너스빌,0.10957251511665493,43,202603,0.14389576301340795,0.11314785343923335,1456.9926553588343,105000.0,37.52399753749601,126.90262129376764,0.26724048625879776,영등포시장,30,0.05264403635723114,0.06050381708200221,6.1,Gray,False,False,높음
구로구,개봉동,개봉푸르지오,-0.33976552005695926,43,202603,-0.3518348128307494,-0.34102273805422906,1099.3854847963726,85000.0,37.5004094376531,126.84813342649245,0.7300858094838981,오류동,45,-0.30541473151487764,-0.03560800653935142,-3.6,Gray,False,False,높음
양천구,신월동,목동센트럴아이파크위브3단지,-0.22892237123879156,43,202603,-0.3405313796547355,-0.24054830961545237,1505.416128704027,104000.0,37.5175943561711,126.84540983826,0.7215321024523006,신정네거리,37,-0.15296348440103025,-0.08758482521442212,-8.8,Gray,False,False,높음
송파구,문정동,파크하비오,0.25576491428376646,43,202603,0.2736296354318419,0.257625822736691,2057.0090105196136,182000.0,37.48182408213381,127.1235091461094,0.4259223268481568,장지,18,0.2536011831594509,0.004024639577240086,0.4,Gray,False,False,높음
마포구,중동,마포중동현대,-0.06075153286663039,43,202602,-0.09364687454123015,-0.06417813095773453,1278.1058307019362,82000.0,37.5715963056365,126.906991045846,0.703416189538029,디지털미디어시티,37,-0.1500356022171062,0.08585747125937168,8.6,Gray,False,False,높음
강남구,세곡동,세곡푸르지오,0.3785385679308937,43,202602,0.3558821137908445,0.3761785206246386,2123.483896793167,159000.0,37.46677996948494,127.09296824674976,2.0663730901157193,일원,19,-0.030411013546771448,0.40658953417141,40.7,Red,False,False,높음
광진구,자양동,우성1,0.32478422085594283,42,202603,0.22668519296788042,0.3143481540593404,1933.3050226163261,120000.0,37.506877946720635,127.07314063127907,0.47853911862355936,종합운동장,14,0.32063169238706185,-0.0062835383277214385,-0.6,Gray,False,False,높음
영등포구,신길동,우성1,0.0853792435749425,42,202603,0.05435994199740521,0.08207931787520449,1503.9957753028143,92000.0,37.49320861383776,126.91206835177245,0.6309462483955169,신대방,32,-0.043905055422915784,0.1259843732981203,12.6,Gray,False,False,높음
동대문구,휘경동,주공1,-0.29712704223351527,42,202603,-0.24273613895003332,-0.2913407759267619,917.6965318187222,82250.0,37.582887332939436,127.07133556183088,1.3724314763035874,회기 경춘선,26,-0.050441818793526494,-0.2408989571332354,-24.1,Gray,False,False,높음
영등포구,당산동5가,당산삼성래미안4차,0.34472557666494935,42,202601,0.3074260877003896,0.3407575459240388,1834.0471182811884,207500.0,37.53293204452245,126.90283595709072,0.11218249309639629,당산,29,0.09658800971191284,0.24416953621212595,24.4,Gray,False,False,높음
은평구,수색동,DMCSKVIEW,-0.18237255514437378,42,202603,-0.22993362483009094,-0.1874322434088118,1833.7325284389542,140000.0,37.581118722814104,126.90014118646708,0.3959591400043256,수색 경의중앙선,44,-0.23252979396098827,0.045097550552176485,4.5,Gray,False,False,높음
서대문구,남가좌동,래미안루센티아,-0.07536316249836547,42,202603,-0.02479971900169507,-0.06998407276467712,1725.599398707312,133750.0,37.5761543538414,126.9178066099872,0.8652120286047327,가좌 경의중앙선,46,-0.34613734437911825,0.27615327161444114,27.6,Gray,False,False,높음
서대문구,북아현동,e편한세상신촌1단지,0.30356863470706436,42,202602,0.2170670358756406,0.2943663369590406,2423.807704751292,176500.0,37.55802255064332,126.95175819710762,0.3928425539339496,아현,37,-0.09984089114818029,0.39420722810722086,39.4,Red,False,False,높음
은평구,증산동,DMC센트럴자이(3단지),-0.14182869478071,42,202603,-0.12898854920663477,-0.14046272184729772,1896.2247316860073,163000.0,37.58014837796137,126.90341993204059,0.3887498437676251,디지털미디어시티 경의중앙선,40,-0.15583023089913683,0.015367509051839118,1.5,Gray,False,False,높음
송파구,송파동,가락삼익맨숀,0.4571150133597322,42,202602,0.31906120528261966,0.4424284380323798,2324.7419957037955,221250.0,37.50423440071746,127.1213056236913,0.631004201303671,오금,19,0.20157238231073493,0.24085605572164487,24.1,Gray,False,False,높음
서대문구,북가좌동,DMC한양,-0.2961270638444871,42,202603,-0.12483944725254766,-0.2779049769730042,988.3561933688763,82900.0,37.57589298701697,126.90909696142502,0.6892118863073796,디지털미디어시티,39,-0.18550711249469487,-0.09239786447830933,-9.2,Gray,False,False,높음
양천구,목동,목동신시가지5,0.823326564818069,42,202512,0.36295510837289174,0.774350877962199,3091.441610457124,281500.0,37.53394405537617,126.8822475432879,1.000189151587862,양평,39,-0.23576705793210317,1.0101179358943022,101.0,Red,True,False,높음
동작구,노량진동,우성,0.11205055344707245,42,202603,0.13900498385215174,0.11491804604335747,1468.263452569435,121750.0,37.51158196860668,126.93595763597668,0.4890278635218391,노량진,28,0.05456610383170213,0.06035194221165534,6.0,Gray,False,False,높음
광진구,구의동,구의현대2단지,0.58065275943836,42,202602,0.15799051936068048,0.5356886913449899,2290.2943022786126,198500.0,37.53862742213737,127.09587249483558,0.4027751725274413,강변,15,0.31399301227440063,0.22169567907058924,22.2,Gray,False,False,높음
동작구,사당동,사당우성2,0.4197292892675732,42,202602,0.1227145604811726,0.3881319776945518,1971.2184268973874,150000.0,37.4873466223371,126.97758941827131,0.4123598372983806,총신대입구,37,-0.10299526192219166,0.4911272396167435,49.1,Red,False,False,높음
동작구,사당동,신동아4,0.330496509064563,41,202603,0.1227145604811726,0.30791151465332495,1820.1407027345654,131000.0,37.49026853178461,126.97728098150327,0.5814280246530035,총신대입구,37,-0.13031995353262427,0.4382314681859492,43.8,Red,False,False,높음
마포구,염리동,염리삼성래미안,0.48144283229940527,41,202602,0.3862972832428181,0.47110092479325455,2111.6092853141267,153000.0,37.54896539011028,126.94679502360975,0.4082053930595126,대흥,34,-0.045673022384991935,0.5167739471782464,51.7,Red,False,False,높음
노원구,상계동,상계주공13(고층),-0.518055033572895,41,202603,-0.33837159335803557,-0.4985242248538885,806.4957972503828,39500.0,37.66727,127.07242,0.6705814960057204,불암산,42,-0.23914688174013743,-0.25937734311375105,-25.9,Gray,False,False,높음
서대문구,북가좌동,북가좌삼호,-0.20622914432249143,41,202603,-0.12483944725254766,-0.19738243811923667,980.4173330693005,85000.0,37.5766274279301,126.912854486933,0.8451361951271796,증산,39,-0.21070749891709295,0.01332506079785628,1.3,Gray,False,False,높음
성북구,종암동,래미안라센트,0.000658352344275852,41,202603,-0.12011229559905745,-0.012468891997390812,1495.2170968074865,114000.0,37.599480756187695,127.03883000318879,0.3470922264407685,월곡,33,-0.016912351423661653,0.004443459426270842,0.4,Gray,False,False,높음
노원구,월계동,미륭,0.037616738304236,41,202602,-0.2535145399746606,0.005972034143486368,1495.0158242841171,74700.0,37.624465200858225,127.0653217049646,0.3001118718692401,광운대 경춘선,30,0.047331384174304714,-0.041359350030818344,-4.1,Gray,False,False,높음
노원구,공릉동,시영2단지(라이프)아파트,-0.28635095728625615,41,202603,-0.29973352934934877,-0.2878055846844184,889.8857702545985,34500.0,37.6302152,127.0872902,1.1997085695586942,화랑대,28,-0.06029365441015844,-0.22751193027425998,-22.8,Gray,False,False,높음
양천구,목동,목동신시가지3,0.8206376836033671,41,202603,0.36295510837289174,0.7708895776000545,2981.103465190803,242000.0,37.533948987744026,126.87309218221968,1.0649570867668572,오목교,39,-0.2462348099243714,1.0171243875244258,101.7,Red,True,False,높음
동대문구,용두동,신동아,-0.10359740861770866,41,202603,-0.056876971091052546,-0.09851910019089821,1170.874989421702,71000.0,37.572698001958706,127.03231618087726,0.7855121630563296,신설동,26,0.044415702811348545,-0.14293480300224676,-14.3,Gray,False,False,높음
마포구,도화동,삼성,0.38247244111774603,41,202603,0.21040064944707562,0.3637689855013689,1841.5731888666942,174000.0,37.5400830740148,126.95032143595205,0.39751406898939623,마포,34,-0.04394509747082476,0.40771408297219364,40.8,Red,False,False,높음
동대문구,용두동,청량리역한양수자인그라시엘,-0.24261916837898628,41,202603,-0.056876971091052546,-0.2224297991085587,1873.360033872519,160000.0,37.57724554963043,127.04291199498817,0.3491962162690546,청량리,26,0.11493280527290872,-0.3373626043814674,-33.7,Blue,False,False,높음
양천구,목동,목동신시가지4,0.936526653339418,41,202603,0.36295510837289174,0.8741819201908825,3535.140940734323,209000.0,37.5318601573647,126.871140703227,0.8575307261167283,목동,39,-0.21271069503721807,1.0868926152281007,108.7,Red,True,False,높음
중랑구,면목동,한양수자인사가정파크,-0.29841173190176257,41,202602,-0.3450237621973327,-0.30347825693388975,1303.5338197908052,96200.0,37.57949000687921,127.0940319992992,0.5130939758338446,사가정,25,0.10732735518482706,-0.4108056121187168,-41.1,Blue,False,False,높음
노원구,중계동,염광,-0.38276182739441644,41,202603,-0.2126795577727421,-0.36427462417466927,913.2937497887796,57800.0,37.656179892249995,127.07294572447526,0.5066326067543736,상계,36,-0.09934796592675488,-0.2649266582479144,-26.5,Gray,False,False,높음
