[
  {
    "name": "4.19민주묘지 우이신설선",
    "lat": 37.6495307746374,
    "lon": 127.01369763482,
    "line": ""
  },
  {
    "name": "가오리 우이신설선",
    "lat": 37.6415440572233,
    "lon": 127.01676896839822,
    "line": ""
  },
  {
    "name": "가좌 경의중앙선",
    "lat": 37.5687433529646,
    "lon": 126.914815128053,
    "line": ""
  },
  {
    "name": "가천대 수인분당선",
    "lat": 37.44856169280611,
    "lon": 127.1266967573021,
    "line": ""
  },
  {
    "name": "갈매 경춘선",
    "lat": 37.6340689252244,
    "lon": 127.114760741021,
    "line": ""
  },
  {
    "name": "강남 신분당선",
    "lat": 37.4967771303817,
    "lon": 127.028185245594,
    "line": ""
  },
  {
    "name": "강매 경의중앙선",
    "lat": 37.6122904718741,
    "lon": 126.84449823065067,
    "line": ""
  },
  {
    "name": "개포동 수인분당선",
    "lat": 37.4891394691891,
    "lon": 127.066120707828,
    "line": ""
  },
  {
    "name": "계양 공항철도",
    "lat": 37.57177084709832,
    "lon": 126.73627367694554,
    "line": ""
  },
  {
    "name": "고촌 김포골드라인",
    "lat": 37.601213413053,
    "lon": 126.770325947061,
    "line": ""
  },
  {
    "name": "곡산 경의중앙선",
    "lat": 37.64607886227099,
    "lon": 126.80160321314327,
    "line": ""
  },
  {
    "name": "곡산 서해선",
    "lat": 37.64535157979578,
    "lon": 126.8020266587125,
    "line": ""
  },
  {
    "name": "관악산 신림선",
    "lat": 37.4690860478461,
    "lon": 126.94509952208,
    "line": ""
  },
  {
    "name": "광운대 경춘선",
    "lat": 37.623916497664,
    "lon": 127.061985215335,
    "line": ""
  },
  {
    "name": "구룡 수인분당선",
    "lat": 37.4870274262116,
    "lon": 127.059492941655,
    "line": ""
  },
  {
    "name": "구리 경의중앙선",
    "lat": 37.603268938528196,
    "lon": 127.14335098072823,
    "line": ""
  },
  {
    "name": "금곡 경춘선",
    "lat": 37.6373551430559,
    "lon": 127.207533674718,
    "line": ""
  },
  {
    "name": "김포공항 공항철도",
    "lat": 37.561829756420224,
    "lon": 126.8024731079849,
    "line": ""
  },
  {
    "name": "김포공항 김포골드라인",
    "lat": 37.56232990369519,
    "lon": 126.80199188908921,
    "line": ""
  },
  {
    "name": "김포공항 서해선",
    "lat": 37.5617956120178,
    "lon": 126.804151698874,
    "line": ""
  },
  {
    "name": "능곡 경의중앙선",
    "lat": 37.61898698884321,
    "lon": 126.82063426387445,
    "line": ""
  },
  {
    "name": "능곡 서해선",
    "lat": 37.6188380699134,
    "lon": 126.82046585047,
    "line": ""
  },
  {
    "name": "대곡 GTX-A",
    "lat": 37.6324057061898,
    "lon": 126.810475040471,
    "line": ""
  },
  {
    "name": "대곡 경의중앙선",
    "lat": 37.631949960160085,
    "lon": 126.8100094467358,
    "line": ""
  },
  {
    "name": "대곡 서해선",
    "lat": 37.6318575945755,
    "lon": 126.809720795002,
    "line": ""
  },
  {
    "name": "대모산입구 수인분당선",
    "lat": 37.4915500752654,
    "lon": 127.073070274916,
    "line": ""
  },
  {
    "name": "덕소 경의중앙선",
    "lat": 37.5868903292078,
    "lon": 127.208842710609,
    "line": ""
  },
  {
    "name": "도곡 수인분당선",
    "lat": 37.491628295881874,
    "lon": 127.05510807289598,
    "line": ""
  },
  {
    "name": "도농 경의중앙선",
    "lat": 37.6087726045416,
    "lon": 127.161178663222,
    "line": ""
  },
  {
    "name": "도심 경의중앙선",
    "lat": 37.579639075911,
    "lon": 127.222683857886,
    "line": ""
  },
  {
    "name": "디지털미디어시티 경의중앙선",
    "lat": 37.57740168656261,
    "lon": 126.90069067398757,
    "line": ""
  },
  {
    "name": "디지털미디어시티 공항철도",
    "lat": 37.57752092438604,
    "lon": 126.89788185706144,
    "line": ""
  },
  {
    "name": "마곡나루 공항철도",
    "lat": 37.56563152507763,
    "lon": 126.82749586320818,
    "line": ""
  },
  {
    "name": "망우 경의중앙선",
    "lat": 37.5992960295399,
    "lon": 127.092367383432,
    "line": ""
  },
  {
    "name": "망우 경춘선",
    "lat": 37.600017312378,
    "lon": 127.091738656282,
    "line": ""
  },
  {
    "name": "모란 수인분당선",
    "lat": 37.432056973841604,
    "lon": 127.12913205625071,
    "line": ""
  },
  {
    "name": "백마 경의중앙선",
    "lat": 37.65853599537713,
    "lon": 126.7943339818477,
    "line": ""
  },
  {
    "name": "백마 서해선",
    "lat": 37.657797042058306,
    "lon": 126.7947655346786,
    "line": ""
  },
  {
    "name": "별내 경춘선",
    "lat": 37.642067071704496,
    "lon": 127.1269691476328,
    "line": ""
  },
  {
    "name": "복정 수인분당선",
    "lat": 37.46904181976967,
    "lon": 127.12657757539301,
    "line": ""
  },
  {
    "name": "부천종합운동장 서해선",
    "lat": 37.5061541549989,
    "lon": 126.79760170408,
    "line": ""
  },
  {
    "name": "북한산보국문 우이신설선",
    "lat": 37.6121367531121,
    "lon": 127.008263392003,
    "line": ""
  },
  {
    "name": "북한산우이 우이신설선",
    "lat": 37.66288704047998,
    "lon": 127.01275713087601,
    "line": ""
  },
  {
    "name": "사릉 경춘선",
    "lat": 37.65112427884554,
    "lon": 127.17692620365439,
    "line": ""
  },
  {
    "name": "삼양 우이신설선",
    "lat": 37.6269190539283,
    "lon": 127.018156780705,
    "line": ""
  },
  {
    "name": "삼양사거리 우이신설선",
    "lat": 37.6213181360851,
    "lon": 127.020488845069,
    "line": ""
  },
  {
    "name": "상봉 경의중앙선",
    "lat": 37.59671381067542,
    "lon": 127.08515107127755,
    "line": ""
  },
  {
    "name": "상봉 경춘선",
    "lat": 37.5969733432502,
    "lon": 127.085085690038,
    "line": ""
  },
  {
    "name": "서강대 경의중앙선",
    "lat": 37.5521384864879,
    "lon": 126.935507621173,
    "line": ""
  },
  {
    "name": "서울 GTX-A",
    "lat": 37.5554875216741,
    "lon": 126.972636930856,
    "line": ""
  },
  {
    "name": "서울 공항철도",
    "lat": 37.55332892758497,
    "lon": 126.96974961781686,
    "line": ""
  },
  {
    "name": "서울숲 수인분당선",
    "lat": 37.543645796605,
    "lon": 127.044746216358,
    "line": ""
  },
  {
    "name": "서원 신림선",
    "lat": 37.4782386357719,
    "lon": 126.93310993651,
    "line": ""
  },
  {
    "name": "선릉 수인분당선",
    "lat": 37.505167825521674,
    "lon": 127.04870992465413,
    "line": ""
  },
  {
    "name": "선정릉 수인분당선",
    "lat": 37.5109326388803,
    "lon": 127.043627289129,
    "line": ""
  },
  {
    "name": "소사 서해선",
    "lat": 37.482905634947286,
    "lon": 126.79506057713336,
    "line": ""
  },
  {
    "name": "소새울 서해선",
    "lat": 37.46851045193921,
    "lon": 126.79728159163491,
    "line": ""
  },
  {
    "name": "솔밭공원 우이신설선",
    "lat": 37.6559782562487,
    "lon": 127.013268181236,
    "line": ""
  },
  {
    "name": "솔샘 우이신설선",
    "lat": 37.620259575206596,
    "lon": 127.01355180603669,
    "line": ""
  },
  {
    "name": "수색 경의중앙선",
    "lat": 37.5808625683358,
    "lon": 126.895659474538,
    "line": ""
  },
  {
    "name": "수서 GTX-A",
    "lat": 37.4866365875118,
    "lon": 127.102558521485,
    "line": ""
  },
  {
    "name": "수서 수인분당선",
    "lat": 37.48791648624159,
    "lon": 127.10096935722798,
    "line": ""
  },
  {
    "name": "시흥대야 서해선",
    "lat": 37.4500998726813,
    "lon": 126.792993796201,
    "line": ""
  },
  {
    "name": "신내 경춘선",
    "lat": 37.61270546979327,
    "lon": 127.10322521629693,
    "line": ""
  },
  {
    "name": "신논현 신분당선",
    "lat": 37.5036164990854,
    "lon": 127.024926154562,
    "line": ""
  },
  {
    "name": "신천 서해선",
    "lat": 37.43924604520613,
    "lon": 126.78678508124932,
    "line": ""
  },
  {
    "name": "신촌 경의중앙선",
    "lat": 37.55967513765615,
    "lon": 126.94208931819857,
    "line": ""
  },
  {
    "name": "압구정로데오 수인분당선",
    "lat": 37.5275184818021,
    "lon": 127.0406027693898,
    "line": ""
  },
  {
    "name": "야당 경의중앙선",
    "lat": 37.712611015679,
    "lon": 126.761453983315,
    "line": ""
  },
  {
    "name": "야탑 수인분당선",
    "lat": 37.4113736407028,
    "lon": 127.128742990837,
    "line": ""
  },
  {
    "name": "양원 경의중앙선",
    "lat": 37.6066060557557,
    "lon": 127.107946139148,
    "line": ""
  },
  {
    "name": "양재시민의숲 신분당선",
    "lat": 37.4701332061395,
    "lon": 127.038471341381,
    "line": ""
  },
  {
    "name": "양정 경의중앙선",
    "lat": 37.604027962835566,
    "lon": 127.19466908658632,
    "line": ""
  },
  {
    "name": "연신내 GTX-A",
    "lat": 37.6189362438035,
    "lon": 126.920637714408,
    "line": ""
  },
  {
    "name": "용산 경의중앙선",
    "lat": 37.52960692295435,
    "lon": 126.96475753303035,
    "line": ""
  },
  {
    "name": "원종 서해선",
    "lat": 37.5241890956788,
    "lon": 126.804845090802,
    "line": ""
  },
  {
    "name": "이촌 경의중앙선",
    "lat": 37.52241291408466,
    "lon": 126.97354382085399,
    "line": ""
  },
  {
    "name": "일산 경의중앙선",
    "lat": 37.68222907297604,
    "lon": 126.7695084298458,
    "line": ""
  },
  {
    "name": "일산 서해선",
    "lat": 37.68177882144443,
    "lon": 126.77055391257012,
    "line": ""
  },
  {
    "name": "정릉 우이신설선",
    "lat": 37.602614606648,
    "lon": 127.013539545056,
    "line": ""
  },
  {
    "name": "중랑 경의중앙선",
    "lat": 37.5948425975025,
    "lon": 127.075680398461,
    "line": ""
  },
  {
    "name": "중랑 경춘선",
    "lat": 37.5950833462926,
    "lon": 127.076790328944,
    "line": ""
  },
  {
    "name": "청계산입구 신분당선",
    "lat": 37.4483547387397,
    "lon": 127.054720327179,
    "line": ""
  },
  {
    "name": "킨텍스 GTX-A",
    "lat": 37.665242745403,
    "lon": 126.748256521974,
    "line": ""
  },
  {
    "name": "탄현 경의중앙선",
    "lat": 37.6939889446111,
    "lon": 126.761078262576,
    "line": ""
  },
  {
    "name": "태평 수인분당선",
    "lat": 37.43978918729356,
    "lon": 127.12774980543841,
    "line": ""
  },
  {
    "name": "퇴계원 경춘선",
    "lat": 37.6482657629059,
    "lon": 127.14353713662,
    "line": ""
  },
  {
    "name": "팔당 경의중앙선",
    "lat": 37.5473594340956,
    "lon": 127.243966151989,
    "line": ""
  },
  {
    "name": "평내호평 경춘선",
    "lat": 37.6532138128125,
    "lon": 127.244438968688,
    "line": ""
  },
  {
    "name": "풍무 김포골드라인",
    "lat": 37.61242840262763,
    "lon": 126.7324492375288,
    "line": ""
  },
  {
    "name": "풍산 경의중앙선",
    "lat": 37.672668497783,
    "lon": 126.78608384011483,
    "line": ""
  },
  {
    "name": "풍산 서해선",
    "lat": 37.67193317670881,
    "lon": 126.78651327978358,
    "line": ""
  },
  {
    "name": "한국항공대 경의중앙선",
    "lat": 37.6029725988481,
    "lon": 126.86832177393612,
    "line": ""
  },
  {
    "name": "한남 경의중앙선",
    "lat": 37.5294289189437,
    "lon": 127.009209110584,
    "line": ""
  },
  {
    "name": "한티 수인분당선",
    "lat": 37.4962857047653,
    "lon": 127.052909749417,
    "line": ""
  },
  {
    "name": "행신 경의중앙선",
    "lat": 37.612121606726944,
    "lon": 126.83428827682994,
    "line": ""
  },
  {
    "name": "홍대입구 경의중앙선",
    "lat": 37.5574494922411,
    "lon": 126.927118938976,
    "line": ""
  },
  {
    "name": "홍대입구 공항철도",
    "lat": 37.5573052656667,
    "lon": 126.927010430346,
    "line": ""
  },
  {
    "name": "화계 우이신설선",
    "lat": 37.6340873974011,
    "lon": 127.017510491529,
    "line": ""
  },
  {
    "name": "회기 경의중앙선",
    "lat": 37.5895296349726,
    "lon": 127.05782624137,
    "line": ""
  },
  {
    "name": "회기 경춘선",
    "lat": 37.5899221169641,
    "lon": 127.058537601316,
    "line": ""
  },
  {
    "name": "가산디지털단지",
    "lat": 37.4815311901749,
    "lon": 126.882614758479,
    "line": "1"
  },
  {
    "name": "개봉",
    "lat": 37.4946417150651,
    "lon": 126.858715959622,
    "line": "1"
  },
  {
    "name": "곡",
    "lat": 37.48531525961914,
    "lon": 126.81205931841492,
    "line": "1"
  },
  {
    "name": "관악",
    "lat": 37.41956795517324,
    "lon": 126.90849999541258,
    "line": "1"
  },
  {
    "name": "광명",
    "lat": 37.4167362171922,
    "lon": 126.884961689119,
    "line": "1"
  },
  {
    "name": "광운대",
    "lat": 37.6238373628149,
    "lon": 127.061695160651,
    "line": "1"
  },
  {
    "name": "구로",
    "lat": 37.50334155631282,
    "lon": 126.88230806229326,
    "line": "1"
  },
  {
    "name": "구일",
    "lat": 37.496254517687,
    "lon": 126.86969110539,
    "line": "1"
  },
  {
    "name": "금천구청",
    "lat": 37.4561943743749,
    "lon": 126.893608614581,
    "line": "1"
  },
  {
    "name": "남영",
    "lat": 37.540566672483216,
    "lon": 126.97133096608212,
    "line": "1"
  },
  {
    "name": "노량진",
    "lat": 37.5140547961008,
    "lon": 126.942109882124,
    "line": "1"
  },
  {
    "name": "녹천",
    "lat": 37.644633445567656,
    "lon": 127.05138201885734,
    "line": "1"
  },
  {
    "name": "대방",
    "lat": 37.51335413975466,
    "lon": 126.92649449142719,
    "line": "1"
  },
  {
    "name": "도봉",
    "lat": 37.6792119046658,
    "lon": 127.045534886672,
    "line": "1"
  },
  {
    "name": "도봉산",
    "lat": 37.68951167833238,
    "lon": 127.04606271663916,
    "line": "1"
  },
  {
    "name": "독산",
    "lat": 37.46597376787178,
    "lon": 126.88947790336374,
    "line": "1"
  },
  {
    "name": "동대문",
    "lat": 37.57166940579655,
    "lon": 127.0106338108367,
    "line": "1"
  },
  {
    "name": "동묘앞",
    "lat": 37.5732166600283,
    "lon": 127.016364227103,
    "line": "1"
  },
  {
    "name": "망월사",
    "lat": 37.7102191609902,
    "lon": 127.047418285506,
    "line": "1"
  },
  {
    "name": "방학",
    "lat": 37.6674383662755,
    "lon": 127.044321721307,
    "line": "1"
  },
  {
    "name": "부개",
    "lat": 37.488477043182,
    "lon": 126.740730089704,
    "line": "1"
  },
  {
    "name": "부천",
    "lat": 37.483989787369545,
    "lon": 126.78308287157131,
    "line": "1"
  },
  {
    "name": "서울",
    "lat": 37.55597933890212,
    "lon": 126.97209238331357,
    "line": "1"
  },
  {
    "name": "석계",
    "lat": 37.61500552731744,
    "lon": 127.06568946412851,
    "line": "1"
  },
  {
    "name": "석수",
    "lat": 37.43509293822681,
    "lon": 126.90232078368835,
    "line": "1"
  },
  {
    "name": "소사",
    "lat": 37.48280123201647,
    "lon": 126.79564653125107,
    "line": "1"
  },
  {
    "name": "송내",
    "lat": 37.48764140324914,
    "lon": 126.75315944764172,
    "line": "1"
  },
  {
    "name": "시청",
    "lat": 37.56534539636417,
    "lon": 126.97719821079865,
    "line": "1"
  },
  {
    "name": "신길",
    "lat": 37.51678703217714,
    "lon": 126.91836721069228,
    "line": "1"
  },
  {
    "name": "신도림",
    "lat": 37.508908482648,
    "lon": 126.891312500851,
    "line": "1"
  },
  {
    "name": "신설동",
    "lat": 37.5760299683175,
    "lon": 127.024456700382,
    "line": "1"
  },
  {
    "name": "신이문",
    "lat": 37.6017816437084,
    "lon": 127.067398003775,
    "line": "1"
  },
  {
    "name": "영등포",
    "lat": 37.5156726288261,
    "lon": 126.907550274975,
    "line": "1"
  },
  {
    "name": "오류동",
    "lat": 37.49439720933549,
    "lon": 126.84480744815397,
    "line": "1"
  },
  {
    "name": "온수",
    "lat": 37.4923999909922,
    "lon": 126.823828819915,
    "line": "1"
  },
  {
    "name": "외대앞",
    "lat": 37.596274142656114,
    "lon": 127.06369251145765,
    "line": "1"
  },
  {
    "name": "용산",
    "lat": 37.52977356999725,
    "lon": 126.96462961258051,
    "line": "1"
  },
  {
    "name": "월계",
    "lat": 37.6332775453974,
    "lon": 127.058857087601,
    "line": "1"
  },
  {
    "name": "종각",
    "lat": 37.570227990912244,
    "lon": 126.98315081716676,
    "line": "1"
  },
  {
    "name": "종로3가",
    "lat": 37.570420844523,
    "lon": 126.992153252476,
    "line": "1"
  },
  {
    "name": "종로5가",
    "lat": 37.57097610838373,
    "lon": 127.00153834521934,
    "line": "1"
  },
  {
    "name": "중동",
    "lat": 37.486681622773176,
    "lon": 126.76453398304898,
    "line": "1"
  },
  {
    "name": "창동",
    "lat": 37.6533385121404,
    "lon": 127.047644999036,
    "line": "1"
  },
  {
    "name": "청량리",
    "lat": 37.580037056302906,
    "lon": 127.04472723023305,
    "line": "1"
  },
  {
    "name": "회기",
    "lat": 37.5897962196601,
    "lon": 127.058048369273,
    "line": "1"
  },
  {
    "name": "강남",
    "lat": 37.49808633653005,
    "lon": 127.02800140627488,
    "line": "2"
  },
  {
    "name": "강변",
    "lat": 37.5351180385975,
    "lon": 127.094741101863,
    "line": "2"
  },
  {
    "name": "건대입구",
    "lat": 37.54040751726388,
    "lon": 127.06920291650829,
    "line": "2"
  },
  {
    "name": "교대",
    "lat": 37.4938999991414,
    "lon": 127.014383829781,
    "line": "2"
  },
  {
    "name": "구로디지털단지",
    "lat": 37.4852605752505,
    "lon": 126.901473080039,
    "line": "2"
  },
  {
    "name": "구의",
    "lat": 37.5371752725594,
    "lon": 127.086180837795,
    "line": "2"
  },
  {
    "name": "낙성대",
    "lat": 37.4770932409965,
    "lon": 126.963523905001,
    "line": "2"
  },
  {
    "name": "당산",
    "lat": 37.5347843171332,
    "lon": 126.902611795523,
    "line": "2"
  },
  {
    "name": "대림",
    "lat": 37.4933099444417,
    "lon": 126.894931036051,
    "line": "2"
  },
  {
    "name": "동대문사문화공원",
    "lat": 37.56566440553802,
    "lon": 127.00900417014896,
    "line": "2"
  },
  {
    "name": "뚝섬",
    "lat": 37.547241554679,
    "lon": 127.04738727881,
    "line": "2"
  },
  {
    "name": "문래",
    "lat": 37.5179757181801,
    "lon": 126.894778820701,
    "line": "2"
  },
  {
    "name": "방배",
    "lat": 37.4814561268152,
    "lon": 126.997553345516,
    "line": "2"
  },
  {
    "name": "봉천",
    "lat": 37.4824725161034,
    "lon": 126.941686527151,
    "line": "2"
  },
  {
    "name": "사당",
    "lat": 37.47656223234824,
    "lon": 126.98155858357366,
    "line": "2"
  },
  {
    "name": "삼",
    "lat": 37.5006744185994,
    "lon": 127.03646946847,
    "line": "2"
  },
  {
    "name": "삼성",
    "lat": 37.508822740225305,
    "lon": 127.06302321147605,
    "line": "2"
  },
  {
    "name": "상왕십리",
    "lat": 37.56443666620397,
    "lon": 127.02927241035283,
    "line": "2"
  },
  {
    "name": "서울대입구",
    "lat": 37.4812845080678,
    "lon": 126.952713197762,
    "line": "2"
  },
  {
    "name": "서초",
    "lat": 37.4918499338918,
    "lon": 127.007662120039,
    "line": "2"
  },
  {
    "name": "선릉",
    "lat": 37.504497373023206,
    "lon": 127.04896282498558,
    "line": "2"
  },
  {
    "name": "성수",
    "lat": 37.5445888153751,
    "lon": 127.056066999327,
    "line": "2"
  },
  {
    "name": "신당",
    "lat": 37.5656730531732,
    "lon": 127.019477533278,
    "line": "2"
  },
  {
    "name": "신대방",
    "lat": 37.48765046104574,
    "lon": 126.91350747615147,
    "line": "2"
  },
  {
    "name": "신도림",
    "lat": 37.508222191535346,
    "lon": 126.89161095407636,
    "line": "2"
  },
  {
    "name": "신림",
    "lat": 37.484267135140364,
    "lon": 126.9297453749671,
    "line": "2"
  },
  {
    "name": "신정네거리",
    "lat": 37.5202231231721,
    "lon": 126.852889567642,
    "line": "2"
  },
  {
    "name": "신촌",
    "lat": 37.555198169366435,
    "lon": 126.93698075993808,
    "line": "2"
  },
  {
    "name": "아현",
    "lat": 37.55740617797663,
    "lon": 126.95614644008904,
    "line": "2"
  },
  {
    "name": "양천구청",
    "lat": 37.5123888716808,
    "lon": 126.865722369229,
    "line": "2"
  },
  {
    "name": "영등포구청",
    "lat": 37.5258305311402,
    "lon": 126.89667739939,
    "line": "2"
  },
  {
    "name": "왕십리",
    "lat": 37.561268363317176,
    "lon": 127.03710337610202,
    "line": "2"
  },
  {
    "name": "을지로3가",
    "lat": 37.56629149790628,
    "lon": 126.99098443539428,
    "line": "2"
  },
  {
    "name": "을지로입구",
    "lat": 37.566035517712955,
    "lon": 126.9821953112953,
    "line": "2"
  },
  {
    "name": "이대",
    "lat": 37.556814718869,
    "lon": 126.94642954546576,
    "line": "2"
  },
  {
    "name": "잠실",
    "lat": 37.51331105877401,
    "lon": 127.10023101886318,
    "line": "2"
  },
  {
    "name": "잠실나루",
    "lat": 37.5207124124456,
    "lon": 127.103808749487,
    "line": "2"
  },
  {
    "name": "잠실새내",
    "lat": 37.5116263587296,
    "lon": 127.086314327913,
    "line": "2"
  },
  {
    "name": "종합운동장",
    "lat": 37.5111446632705,
    "lon": 127.073849447402,
    "line": "2"
  },
  {
    "name": "충정로",
    "lat": 37.55976328822766,
    "lon": 126.96449207476172,
    "line": "2"
  },
  {
    "name": "합정",
    "lat": 37.54991315995173,
    "lon": 126.91445406513526,
    "line": "2"
  },
  {
    "name": "홍대입구",
    "lat": 37.5568707448873,
    "lon": 126.923778562273,
    "line": "2"
  },
  {
    "name": "가락시장",
    "lat": 37.4922493218664,
    "lon": 127.11764173832,
    "line": "3"
  },
  {
    "name": "경복궁",
    "lat": 37.5758061234865,
    "lon": 126.973691352767,
    "line": "3"
  },
  {
    "name": "경찰병원",
    "lat": 37.4960049150853,
    "lon": 127.124482397777,
    "line": "3"
  },
  {
    "name": "고속터미널",
    "lat": 37.50454885557265,
    "lon": 127.00512100872538,
    "line": "3"
  },
  {
    "name": "교대",
    "lat": 37.4927431676548,
    "lon": 127.013867969161,
    "line": "3"
  },
  {
    "name": "구파발",
    "lat": 37.6364357889145,
    "lon": 126.918852820009,
    "line": "3"
  },
  {
    "name": "금호",
    "lat": 37.548260922874086,
    "lon": 127.01582916945283,
    "line": "3"
  },
  {
    "name": "남부터미널",
    "lat": 37.4851996335293,
    "lon": 127.01620028391,
    "line": "3"
  },
  {
    "name": "녹번",
    "lat": 37.6008067681825,
    "lon": 126.935828008217,
    "line": "3"
  },
  {
    "name": "대곡",
    "lat": 37.63169736298744,
    "lon": 126.81093112718072,
    "line": "3"
  },
  {
    "name": "대청",
    "lat": 37.49370832148055,
    "lon": 127.07952812085006,
    "line": "3"
  },
  {
    "name": "대치",
    "lat": 37.4944966528582,
    "lon": 127.063203409529,
    "line": "3"
  },
  {
    "name": "대화",
    "lat": 37.676157377075,
    "lon": 126.747500970967,
    "line": "3"
  },
  {
    "name": "도곡",
    "lat": 37.49097398162934,
    "lon": 127.05549883514037,
    "line": "3"
  },
  {
    "name": "마두",
    "lat": 37.65224113444557,
    "lon": 126.77761059652867,
    "line": "3"
  },
  {
    "name": "매봉",
    "lat": 37.4869394661317,
    "lon": 127.046711448388,
    "line": "3"
  },
  {
    "name": "백석",
    "lat": 37.6429623651607,
    "lon": 126.788131509803,
    "line": "3"
  },
  {
    "name": "불광",
    "lat": 37.6100477979795,
    "lon": 126.930315826401,
    "line": "3"
  },
  {
    "name": "삼송",
    "lat": 37.65326511526386,
    "lon": 126.89573389994084,
    "line": "3"
  },
  {
    "name": "수서",
    "lat": 37.487459640349336,
    "lon": 127.10205874359781,
    "line": "3"
  },
  {
    "name": "신사",
    "lat": 37.51643597531432,
    "lon": 127.02030856272764,
    "line": "3"
  },
  {
    "name": "안국",
    "lat": 37.57650192060523,
    "lon": 126.98542143228659,
    "line": "3"
  },
  {
    "name": "압구정",
    "lat": 37.52649127416921,
    "lon": 127.02850865895756,
    "line": "3"
  },
  {
    "name": "약수",
    "lat": 37.5545053994984,
    "lon": 127.010891666957,
    "line": "3"
  },
  {
    "name": "양재",
    "lat": 37.48457681195669,
    "lon": 127.03416413380752,
    "line": "3"
  },
  {
    "name": "연신내",
    "lat": 37.61920414913163,
    "lon": 126.92110296894133,
    "line": "3"
  },
  {
    "name": "오금",
    "lat": 37.50232208779385,
    "lon": 127.12848280775154,
    "line": "3"
  },
  {
    "name": "옥수",
    "lat": 37.5415662783673,
    "lon": 127.017393782846,
    "line": "3"
  },
  {
    "name": "원당",
    "lat": 37.6531102058516,
    "lon": 126.842918441607,
    "line": "3"
  },
  {
    "name": "원흥",
    "lat": 37.6506921774602,
    "lon": 126.87302523491,
    "line": "3"
  },
  {
    "name": "일원",
    "lat": 37.4839886684666,
    "lon": 127.084129757128,
    "line": "3"
  },
  {
    "name": "정발산",
    "lat": 37.659480619983,
    "lon": 126.773405960872,
    "line": "3"
  },
  {
    "name": "주엽",
    "lat": 37.6701494878278,
    "lon": 126.761263524195,
    "line": "3"
  },
  {
    "name": "지축",
    "lat": 37.6481486423031,
    "lon": 126.913854269202,
    "line": "3"
  },
  {
    "name": "충무로",
    "lat": 37.56139658395457,
    "lon": 126.99414960395544,
    "line": "3"
  },
  {
    "name": "학여울",
    "lat": 37.4968851977644,
    "lon": 127.071166599707,
    "line": "3"
  },
  {
    "name": "홍제",
    "lat": 37.5887953806088,
    "lon": 126.944158007985,
    "line": "3"
  },
  {
    "name": "화정",
    "lat": 37.6346440058753,
    "lon": 126.832688422366,
    "line": "3"
  },
  {
    "name": "경마공원",
    "lat": 37.4439629881231,
    "lon": 127.007838042533,
    "line": "4"
  },
  {
    "name": "과천",
    "lat": 37.43287530237988,
    "lon": 126.99661712263098,
    "line": "4"
  },
  {
    "name": "길음",
    "lat": 37.603394782316634,
    "lon": 127.02506019737066,
    "line": "4"
  },
  {
    "name": "남태령",
    "lat": 37.4642499558525,
    "lon": 126.989085267707,
    "line": "4"
  },
  {
    "name": "노원",
    "lat": 37.6563403513278,
    "lon": 127.063449137455,
    "line": "4"
  },
  {
    "name": "대공원",
    "lat": 37.4360557449009,
    "lon": 127.006752481821,
    "line": "4"
  },
  {
    "name": "명동",
    "lat": 37.56096526943837,
    "lon": 126.98640235001736,
    "line": "4"
  },
  {
    "name": "미아",
    "lat": 37.6266544891889,
    "lon": 127.026041090189,
    "line": "4"
  },
  {
    "name": "미아사거리",
    "lat": 37.61327836400571,
    "lon": 127.03008663628454,
    "line": "4"
  },
  {
    "name": "별내별가람",
    "lat": 37.6678462120372,
    "lon": 127.116241994779,
    "line": "4"
  },
  {
    "name": "불암산",
    "lat": 37.67021773630595,
    "lon": 127.07906662027122,
    "line": "4"
  },
  {
    "name": "사당",
    "lat": 37.4775912070902,
    "lon": 126.98169851997,
    "line": "4"
  },
  {
    "name": "삼각지",
    "lat": 37.5344393447708,
    "lon": 126.972922951307,
    "line": "4"
  },
  {
    "name": "상계",
    "lat": 37.660720544722,
    "lon": 127.073421632239,
    "line": "4"
  },
  {
    "name": "선바위",
    "lat": 37.451747988798516,
    "lon": 127.00222869400723,
    "line": "4"
  },
  {
    "name": "성신여대입구",
    "lat": 37.59296812939267,
    "lon": 127.0171260607647,
    "line": "4"
  },
  {
    "name": "수유",
    "lat": 37.63788539420793,
    "lon": 127.02550910860451,
    "line": "4"
  },
  {
    "name": "숙대입구",
    "lat": 37.5445952301115,
    "lon": 126.972118127373,
    "line": "4"
  },
  {
    "name": "신용산",
    "lat": 37.5292591489375,
    "lon": 126.967965039183,
    "line": "4"
  },
  {
    "name": "쌍문",
    "lat": 37.6485426057036,
    "lon": 127.03465609756,
    "line": "4"
  },
  {
    "name": "오남",
    "lat": 37.7051635201214,
    "lon": 127.191104897113,
    "line": "4"
  },
  {
    "name": "정부과천청사",
    "lat": 37.4265047272927,
    "lon": 126.989868044926,
    "line": "4"
  },
  {
    "name": "진접",
    "lat": 37.7199083469452,
    "lon": 127.203247263047,
    "line": "4"
  },
  {
    "name": "창동",
    "lat": 37.6533706449195,
    "lon": 127.04838841056,
    "line": "4"
  },
  {
    "name": "총신대입구",
    "lat": 37.4867995957995,
    "lon": 126.982211871752,
    "line": "4"
  },
  {
    "name": "한성대입구",
    "lat": 37.58842461354086,
    "lon": 127.00601781685579,
    "line": "4"
  },
  {
    "name": "혜화",
    "lat": 37.58204391787134,
    "lon": 127.00194500977393,
    "line": "4"
  },
  {
    "name": "회현",
    "lat": 37.55876114587941,
    "lon": 126.9784372569283,
    "line": "4"
  },
  {
    "name": "강동",
    "lat": 37.5358819145235,
    "lon": 127.132396300314,
    "line": "5"
  },
  {
    "name": "강일",
    "lat": 37.5574259795986,
    "lon": 127.175680183486,
    "line": "5"
  },
  {
    "name": "개화산",
    "lat": 37.5725371505293,
    "lon": 126.806814314979,
    "line": "5"
  },
  {
    "name": "거여",
    "lat": 37.4933304500736,
    "lon": 127.143773841911,
    "line": "5"
  },
  {
    "name": "고덕",
    "lat": 37.55504766830918,
    "lon": 127.15416500963447,
    "line": "5"
  },
  {
    "name": "공덕",
    "lat": 37.5445416897534,
    "lon": 126.951451177648,
    "line": "5"
  },
  {
    "name": "광나루",
    "lat": 37.5452991715677,
    "lon": 127.103521464507,
    "line": "5"
  },
  {
    "name": "광화문",
    "lat": 37.57164860977568,
    "lon": 126.97642427981408,
    "line": "5"
  },
  {
    "name": "군자",
    "lat": 37.557151488837924,
    "lon": 127.0795106156054,
    "line": "5"
  },
  {
    "name": "굽은다리",
    "lat": 37.54551759022203,
    "lon": 127.14288387331297,
    "line": "5"
  },
  {
    "name": "길동",
    "lat": 37.5378264874159,
    "lon": 127.140021295948,
    "line": "5"
  },
  {
    "name": "김포공항",
    "lat": 37.56209981580658,
    "lon": 126.80125680693868,
    "line": "5"
  },
  {
    "name": "까치산",
    "lat": 37.5322306724471,
    "lon": 126.846444264065,
    "line": "5"
  },
  {
    "name": "답십리",
    "lat": 37.56697480965114,
    "lon": 127.05256127651293,
    "line": "5"
  },
  {
    "name": "둔촌동",
    "lat": 37.52765684247226,
    "lon": 127.13621464981398,
    "line": "5"
  },
  {
    "name": "마곡",
    "lat": 37.56022863776301,
    "lon": 126.82469691791624,
    "line": "5"
  },
  {
    "name": "마천",
    "lat": 37.4950381629493,
    "lon": 127.152859864985,
    "line": "5"
  },
  {
    "name": "마포",
    "lat": 37.53955402908912,
    "lon": 126.94586257221307,
    "line": "5"
  },
  {
    "name": "명일",
    "lat": 37.5513978958277,
    "lon": 127.14404374474,
    "line": "5"
  },
  {
    "name": "목동",
    "lat": 37.526135115923466,
    "lon": 126.86462527157516,
    "line": "5"
  },
  {
    "name": "미사",
    "lat": 37.562991348199,
    "lon": 127.192490980441,
    "line": "5"
  },
  {
    "name": "발산",
    "lat": 37.558677743241596,
    "lon": 126.83773640693936,
    "line": "5"
  },
  {
    "name": "방이",
    "lat": 37.5087506251989,
    "lon": 127.126096046986,
    "line": "5"
  },
  {
    "name": "방화",
    "lat": 37.5776031994404,
    "lon": 126.812819296675,
    "line": "5"
  },
  {
    "name": "상일동",
    "lat": 37.5566778757215,
    "lon": 127.165905758209,
    "line": "5"
  },
  {
    "name": "송정",
    "lat": 37.5611612387718,
    "lon": 126.812430347154,
    "line": "5"
  },
  {
    "name": "신정",
    "lat": 37.5250276134139,
    "lon": 126.856097474225,
    "line": "5"
  },
  {
    "name": "아차산",
    "lat": 37.55224917071854,
    "lon": 127.08956495447913,
    "line": "5"
  },
  {
    "name": "양평",
    "lat": 37.5255796429707,
    "lon": 126.886419282885,
    "line": "5"
  },
  {
    "name": "여의나루",
    "lat": 37.5271469489465,
    "lon": 126.93298596744,
    "line": "5"
  },
  {
    "name": "여의도",
    "lat": 37.5217753947299,
    "lon": 126.924397990207,
    "line": "5"
  },
  {
    "name": "영등포구청",
    "lat": 37.5242291583027,
    "lon": 126.895322094259,
    "line": "5"
  },
  {
    "name": "영등포시장",
    "lat": 37.522709383885,
    "lon": 126.905179566968,
    "line": "5"
  },
  {
    "name": "오금",
    "lat": 37.5021388575469,
    "lon": 127.127953219596,
    "line": "5"
  },
  {
    "name": "오목교",
    "lat": 37.5245340839144,
    "lon": 126.875307312696,
    "line": "5"
  },
  {
    "name": "올림픽공원",
    "lat": 37.5163389870117,
    "lon": 127.130963675401,
    "line": "5"
  },
  {
    "name": "우장산",
    "lat": 37.54881618721654,
    "lon": 126.83632627213518,
    "line": "5"
  },
  {
    "name": "장한평",
    "lat": 37.5616038910656,
    "lon": 127.06370373106944,
    "line": "5"
  },
  {
    "name": "천호",
    "lat": 37.5385112120297,
    "lon": 127.12392845044,
    "line": "5"
  },
  {
    "name": "하남검단산",
    "lat": 37.5398032640088,
    "lon": 127.223219337317,
    "line": "5"
  },
  {
    "name": "하남시청",
    "lat": 37.5419775122576,
    "lon": 127.206298162203,
    "line": "5"
  },
  {
    "name": "하남풍산",
    "lat": 37.5522898049699,
    "lon": 127.204006631381,
    "line": "5"
  },
  {
    "name": "행당",
    "lat": 37.5573637818732,
    "lon": 127.029511840513,
    "line": "5"
  },
  {
    "name": "화곡",
    "lat": 37.5416507925709,
    "lon": 126.840455026335,
    "line": "5"
  },
  {
    "name": "광흥창",
    "lat": 37.54748648317645,
    "lon": 126.93202965599583,
    "line": "6"
  },
  {
    "name": "구산",
    "lat": 37.61124669148435,
    "lon": 126.91725947715172,
    "line": "6"
  },
  {
    "name": "대흥",
    "lat": 37.5476479056751,
    "lon": 126.942473188734,
    "line": "6"
  },
  {
    "name": "독바위",
    "lat": 37.6184141599944,
    "lon": 126.933053652461,
    "line": "6"
  },
  {
    "name": "돌곶이",
    "lat": 37.61054501416126,
    "lon": 127.0564381246322,
    "line": "6"
  },
  {
    "name": "디지털미디어시티",
    "lat": 37.57601374718818,
    "lon": 126.90127778415635,
    "line": "6"
  },
  {
    "name": "마포구청",
    "lat": 37.5634871865932,
    "lon": 126.903425598797,
    "line": "6"
  },
  {
    "name": "망원",
    "lat": 37.5560826563712,
    "lon": 126.910094329982,
    "line": "6"
  },
  {
    "name": "보문",
    "lat": 37.585541696968,
    "lon": 127.020003515933,
    "line": "6"
  },
  {
    "name": "봉화산",
    "lat": 37.617350836302734,
    "lon": 127.09136011564394,
    "line": "6"
  },
  {
    "name": "불광",
    "lat": 37.61087796280672,
    "lon": 126.92939540272262,
    "line": "6"
  },
  {
    "name": "상수",
    "lat": 37.54776618366393,
    "lon": 126.92242989321456,
    "line": "6"
  },
  {
    "name": "상월곡",
    "lat": 37.6065588265169,
    "lon": 127.048829192974,
    "line": "6"
  },
  {
    "name": "새절",
    "lat": 37.5908600479967,
    "lon": 126.913580663181,
    "line": "6"
  },
  {
    "name": "석계",
    "lat": 37.6151491167469,
    "lon": 127.066703301093,
    "line": "6"
  },
  {
    "name": "신내",
    "lat": 37.6124910157349,
    "lon": 127.104271439503,
    "line": "6"
  },
  {
    "name": "안암",
    "lat": 37.586307417971,
    "lon": 127.029233420248,
    "line": "6"
  },
  {
    "name": "연신내",
    "lat": 37.61851445829909,
    "lon": 126.92045466718463,
    "line": "6"
  },
  {
    "name": "월곡",
    "lat": 37.6018044172918,
    "lon": 127.041460725816,
    "line": "6"
  },
  {
    "name": "월드컵경기장",
    "lat": 37.5696355653344,
    "lon": 126.899098148061,
    "line": "6"
  },
  {
    "name": "응암",
    "lat": 37.5984928632876,
    "lon": 126.9155399209037,
    "line": "6"
  },
  {
    "name": "이태원",
    "lat": 37.5345252050511,
    "lon": 126.994333861918,
    "line": "6"
  },
  {
    "name": "증산",
    "lat": 37.583746353282,
    "lon": 126.909494991105,
    "line": "6"
  },
  {
    "name": "청구",
    "lat": 37.5609165488093,
    "lon": 127.014165812912,
    "line": "6"
  },
  {
    "name": "촌",
    "lat": 37.60622745935512,
    "lon": 126.9228437430386,
    "line": "6"
  },
  {
    "name": "태릉입구",
    "lat": 37.6173499119222,
    "lon": 127.07475176155,
    "line": "6"
  },
  {
    "name": "합정",
    "lat": 37.5487840343032,
    "lon": 126.91421318621,
    "line": "6"
  },
  {
    "name": "화랑대",
    "lat": 37.61984245540276,
    "lon": 127.08354181123269,
    "line": "6"
  },
  {
    "name": "효창공원앞",
    "lat": 37.5393087503306,
    "lon": 126.96139810075,
    "line": "6"
  },
  {
    "name": "가산디지털단지",
    "lat": 37.4803959660982,
    "lon": 126.882661758356,
    "line": "7"
  },
  {
    "name": "강남구청",
    "lat": 37.51721617197854,
    "lon": 127.0413109462156,
    "line": "7"
  },
  {
    "name": "건대입구",
    "lat": 37.5408686005702,
    "lon": 127.071104284458,
    "line": "7"
  },
  {
    "name": "공릉",
    "lat": 37.6255427648558,
    "lon": 127.073033585328,
    "line": "7"
  },
  {
    "name": "광명사거리",
    "lat": 37.4792983082726,
    "lon": 126.854873735158,
    "line": "7"
  },
  {
    "name": "군자",
    "lat": 37.55745501860533,
    "lon": 127.07966825326926,
    "line": "7"
  },
  {
    "name": "굴포천",
    "lat": 37.50704649360379,
    "lon": 126.7313475774674,
    "line": "7"
  },
  {
    "name": "까치울",
    "lat": 37.506227351130065,
    "lon": 126.81133962285816,
    "line": "7"
  },
  {
    "name": "남구로",
    "lat": 37.48625714438263,
    "lon": 126.88741505160269,
    "line": "7"
  },
  {
    "name": "남성",
    "lat": 37.484793511299706,
    "lon": 126.97091020065321,
    "line": "7"
  },
  {
    "name": "내방",
    "lat": 37.4876585212369,
    "lon": 126.993600180589,
    "line": "7"
  },
  {
    "name": "노원",
    "lat": 37.6545110763411,
    "lon": 127.06055556456411,
    "line": "7"
  },
  {
    "name": "논현",
    "lat": 37.51120000205266,
    "lon": 127.02165424259898,
    "line": "7"
  },
  {
    "name": "대림",
    "lat": 37.4928430008915,
    "lon": 126.896722858042,
    "line": "7"
  },
  {
    "name": "도봉산",
    "lat": 37.6896304650032,
    "lon": 127.046425596353,
    "line": "7"
  },
  {
    "name": "마들",
    "lat": 37.6652017465321,
    "lon": 127.057712619869,
    "line": "7"
  },
  {
    "name": "먹골",
    "lat": 37.6106193846197,
    "lon": 127.077762187968,
    "line": "7"
  },
  {
    "name": "면목",
    "lat": 37.5887148877725,
    "lon": 127.087503803859,
    "line": "7"
  },
  {
    "name": "반포",
    "lat": 37.5081614290284,
    "lon": 127.011586161943,
    "line": "7"
  },
  {
    "name": "보라매",
    "lat": 37.49992085496506,
    "lon": 126.92061230710924,
    "line": "7"
  },
  {
    "name": "부천시청",
    "lat": 37.50465563053715,
    "lon": 126.76401384887843,
    "line": "7"
  },
  {
    "name": "부천종합운동장",
    "lat": 37.50542641602307,
    "lon": 126.7972349705182,
    "line": "7"
  },
  {
    "name": "사가정",
    "lat": 37.5809403751459,
    "lon": 127.088504554212,
    "line": "7"
  },
  {
    "name": "삼산체육관",
    "lat": 37.50650314706075,
    "lon": 126.7414221320359,
    "line": "7"
  },
  {
    "name": "상도",
    "lat": 37.5028706251049,
    "lon": 126.947917975554,
    "line": "7"
  },
  {
    "name": "상동",
    "lat": 37.50578860265,
    "lon": 126.753192450274,
    "line": "7"
  },
  {
    "name": "상봉",
    "lat": 37.5955853328943,
    "lon": 127.085754455388,
    "line": "7"
  },
  {
    "name": "수락산",
    "lat": 37.6778814656816,
    "lon": 127.055350968781,
    "line": "7"
  },
  {
    "name": "숭실대입구",
    "lat": 37.4963172817574,
    "lon": 126.953621963422,
    "line": "7"
  },
  {
    "name": "신대방삼거리",
    "lat": 37.499757228908564,
    "lon": 126.92821094566965,
    "line": "7"
  },
  {
    "name": "신중동",
    "lat": 37.50295164139924,
    "lon": 126.77689833819102,
    "line": "7"
  },
  {
    "name": "신풍",
    "lat": 37.5001229935524,
    "lon": 126.90975434386,
    "line": "7"
  },
  {
    "name": "어린이대공원",
    "lat": 37.54796087622509,
    "lon": 127.07465525507352,
    "line": "7"
  },
  {
    "name": "온수",
    "lat": 37.4919675365056,
    "lon": 126.823847928009,
    "line": "7"
  },
  {
    "name": "용마산",
    "lat": 37.57366797492471,
    "lon": 127.08671982507775,
    "line": "7"
  },
  {
    "name": "이수",
    "lat": 37.48528852311765,
    "lon": 126.98167629035197,
    "line": "7"
  },
  {
    "name": "자양",
    "lat": 37.53155927720518,
    "lon": 127.06679509976304,
    "line": "7"
  },
  {
    "name": "장승배기",
    "lat": 37.5048990621814,
    "lon": 126.939072381356,
    "line": "7"
  },
  {
    "name": "장암",
    "lat": 37.699956566426,
    "lon": 127.052818310578,
    "line": "7"
  },
  {
    "name": "중계",
    "lat": 37.6450921230569,
    "lon": 127.06411035896,
    "line": "7"
  },
  {
    "name": "중곡",
    "lat": 37.56592206115955,
    "lon": 127.08431236632154,
    "line": "7"
  },
  {
    "name": "중화",
    "lat": 37.6025526943256,
    "lon": 127.079312037122,
    "line": "7"
  },
  {
    "name": "천왕",
    "lat": 37.48685558277736,
    "lon": 126.83860534807998,
    "line": "7"
  },
  {
    "name": "철산",
    "lat": 37.4761928424537,
    "lon": 126.868211027014,
    "line": "7"
  },
  {
    "name": "청담",
    "lat": 37.519455579961,
    "lon": 127.053717937903,
    "line": "7"
  },
  {
    "name": "춘의",
    "lat": 37.50369919594287,
    "lon": 126.78699775795889,
    "line": "7"
  },
  {
    "name": "태릉입구",
    "lat": 37.618459513199,
    "lon": 127.075405300578,
    "line": "7"
  },
  {
    "name": "하계",
    "lat": 37.6364765391858,
    "lon": 127.067991278758,
    "line": "7"
  },
  {
    "name": "학동",
    "lat": 37.51434578734927,
    "lon": 127.03190190063152,
    "line": "7"
  },
  {
    "name": "가락시장",
    "lat": 37.4930992522183,
    "lon": 127.118262745146,
    "line": "8"
  },
  {
    "name": "강동구청",
    "lat": 37.5302111983522,
    "lon": 127.12044373032,
    "line": "8"
  },
  {
    "name": "구리",
    "lat": 37.6025594165258,
    "lon": 127.140724609447,
    "line": "8"
  },
  {
    "name": "남위례",
    "lat": 37.4627230752808,
    "lon": 127.139350997519,
    "line": "8"
  },
  {
    "name": "남한산성입구",
    "lat": 37.4516686968693,
    "lon": 127.159882577768,
    "line": "8"
  },
  {
    "name": "다산",
    "lat": 37.6242782781657,
    "lon": 127.14979716054,
    "line": "8"
  },
  {
    "name": "단대오거리",
    "lat": 37.44502248894697,
    "lon": 127.156769790167,
    "line": "8"
  },
  {
    "name": "동구릉",
    "lat": 37.6110490478693,
    "lon": 127.13800203872,
    "line": "8"
  },
  {
    "name": "모란",
    "lat": 37.4340382896277,
    "lon": 127.129970457799,
    "line": "8"
  },
  {
    "name": "몽촌토성",
    "lat": 37.5178055794687,
    "lon": 127.11286534895457,
    "line": "8"
  },
  {
    "name": "문정",
    "lat": 37.4860310539381,
    "lon": 127.122484886901,
    "line": "8"
  },
  {
    "name": "별내",
    "lat": 37.642486592412226,
    "lon": 127.12728258400915,
    "line": "8"
  },
  {
    "name": "복정",
    "lat": 37.47074367341675,
    "lon": 127.12672175187316,
    "line": "8"
  },
  {
    "name": "산성",
    "lat": 37.456881468719025,
    "lon": 127.14994186233623,
    "line": "8"
  },
  {
    "name": "석촌",
    "lat": 37.5054141216925,
    "lon": 127.107004062699,
    "line": "8"
  },
  {
    "name": "송파",
    "lat": 37.4997149535067,
    "lon": 127.112193506363,
    "line": "8"
  },
  {
    "name": "수진",
    "lat": 37.4373779787206,
    "lon": 127.140534508419,
    "line": "8"
  },
  {
    "name": "신흥",
    "lat": 37.4409230460675,
    "lon": 127.147538132656,
    "line": "8"
  },
  {
    "name": "암사",
    "lat": 37.55015818096496,
    "lon": 127.12754072968517,
    "line": "8"
  },
  {
    "name": "암사사공원",
    "lat": 37.5571837185175,
    "lon": 127.137563111896,
    "line": "8"
  },
  {
    "name": "잠실",
    "lat": 37.5143121584933,
    "lon": 127.103270523629,
    "line": "8"
  },
  {
    "name": "장자호수공원",
    "lat": 37.5875774304238,
    "lon": 127.137933784452,
    "line": "8"
  },
  {
    "name": "장지",
    "lat": 37.4786316933099,
    "lon": 127.12617656737,
    "line": "8"
  },
  {
    "name": "천호",
    "lat": 37.537936231906734,
    "lon": 127.12320335921426,
    "line": "8"
  },
  {
    "name": "가양",
    "lat": 37.56143311719883,
    "lon": 126.85442142615852,
    "line": "9"
  },
  {
    "name": "개화",
    "lat": 37.5783445148797,
    "lon": 126.796891362602,
    "line": "9"
  },
  {
    "name": "고속터미널",
    "lat": 37.5059814899483,
    "lon": 127.004211793489,
    "line": "9"
  },
  {
    "name": "공항시장",
    "lat": 37.56368922800772,
    "lon": 126.81060964296609,
    "line": "9"
  },
  {
    "name": "국회의사당",
    "lat": 37.5281465047706,
    "lon": 126.91783895106,
    "line": "9"
  },
  {
    "name": "김포공항",
    "lat": 37.56196757232288,
    "lon": 126.80191361988808,
    "line": "9"
  },
  {
    "name": "노들",
    "lat": 37.5126721234205,
    "lon": 126.953096069577,
    "line": "9"
  },
  {
    "name": "노량진",
    "lat": 37.5135856714992,
    "lon": 126.940893179777,
    "line": "9"
  },
  {
    "name": "당산",
    "lat": 37.5337892432802,
    "lon": 126.902165052778,
    "line": "9"
  },
  {
    "name": "동작",
    "lat": 37.502744106282044,
    "lon": 126.97854611382496,
    "line": "9"
  },
  {
    "name": "둔촌오륜",
    "lat": 37.51940803726135,
    "lon": 127.13865206962898,
    "line": "9"
  },
  {
    "name": "등촌",
    "lat": 37.550728980328884,
    "lon": 126.86557100595411,
    "line": "9"
  },
  {
    "name": "마곡나루",
    "lat": 37.5667126094974,
    "lon": 126.827420928424,
    "line": "9"
  },
  {
    "name": "봉은사",
    "lat": 37.5142554489848,
    "lon": 127.060233935114,
    "line": "9"
  },
  {
    "name": "삼성중앙",
    "lat": 37.5129614511319,
    "lon": 127.053043676912,
    "line": "9"
  },
  {
    "name": "삼전",
    "lat": 37.504549097056476,
    "lon": 127.08736363126373,
    "line": "9"
  },
  {
    "name": "샛강",
    "lat": 37.51737287009036,
    "lon": 126.9283750591322,
    "line": "9"
  },
  {
    "name": "석촌",
    "lat": 37.504972845773686,
    "lon": 127.10676479806769,
    "line": "9"
  },
  {
    "name": "석촌고분",
    "lat": 37.50246245994369,
    "lon": 127.0965081858022,
    "line": "9"
  },
  {
    "name": "선유도",
    "lat": 37.53815865606546,
    "lon": 126.89333386450167,
    "line": "9"
  },
  {
    "name": "송파나루",
    "lat": 37.51101671275264,
    "lon": 127.11266171422027,
    "line": "9"
  },
  {
    "name": "신논현",
    "lat": 37.504811111562,
    "lon": 127.025492036104,
    "line": "9"
  },
  {
    "name": "신목동",
    "lat": 37.5442883741577,
    "lon": 126.883095790252,
    "line": "9"
  },
  {
    "name": "신방화",
    "lat": 37.56748745669626,
    "lon": 126.81723757150974,
    "line": "9"
  },
  {
    "name": "양천향교",
    "lat": 37.5680808809647,
    "lon": 126.841978835328,
    "line": "9"
  },
  {
    "name": "언주",
    "lat": 37.5073353959717,
    "lon": 127.033970921595,
    "line": "9"
  },
  {
    "name": "여의도",
    "lat": 37.5211700890445,
    "lon": 126.92466104293,
    "line": "9"
  },
  {
    "name": "염창",
    "lat": 37.546982941543,
    "lon": 126.874871603971,
    "line": "9"
  },
  {
    "name": "올림픽공원",
    "lat": 37.5161163241813,
    "lon": 127.130252931248,
    "line": "9"
  },
  {
    "name": "종합운동장",
    "lat": 37.5114097871778,
    "lon": 127.076324485585,
    "line": "9"
  },
  {
    "name": "중앙보훈병원",
    "lat": 37.52840258997037,
    "lon": 127.14841167813621,
    "line": "9"
  },
  {
    "name": "증미",
    "lat": 37.558133059903305,
    "lon": 126.86063675500975,
    "line": "9"
  },
  {
    "name": "한성백제",
    "lat": 37.5165379932802,
    "lon": 127.116449169971,
    "line": "9"
  },
  {
    "name": "계양",
    "lat": 37.571517804153075,
    "lon": 126.73633456381877,
    "line": "인천1"
  },
  {
    "name": "귤현",
    "lat": 37.5662988350728,
    "lon": 126.742679119614,
    "line": "인천1"
  },
  {
    "name": "박촌",
    "lat": 37.5536612597496,
    "lon": 126.74506746745,
    "line": "인천1"
  },
  {
    "name": "임학",
    "lat": 37.5450120455649,
    "lon": 126.738633379569,
    "line": "인천1"
  },
  {
    "name": "남동구청",
    "lat": 37.4481747324298,
    "lon": 126.736565773149,
    "line": "인천2"
  },
  {
    "name": "만수",
    "lat": 37.4549755117309,
    "lon": 126.731736248865,
    "line": "인천2"
  },
  {
    "name": "운연",
    "lat": 37.4396425989597,
    "lon": 126.759606687799,
    "line": "인천2"
  },
  {
    "name": "인천대공원",
    "lat": 37.4484766105613,
    "lon": 126.752851963764,
    "line": "인천2"
  }
]